~VERSION INFORMATION
VERS.                                   2:CWLS LOG ASCII STANDARD - VERSION 2.0
WRAP.                                  NO:ONE LINE PER DEPTH STEP
~WELL INFORMATION
#MNEM.UNIT              DATA              DESCRIPTION
#--------- ------------------------------ -------------------------------
 STRT.M                           20.7900:START DEPTH
 STOP.M                         4665.7896:STOP DEPTH
 STEP.M                            0.1524:STEP
 NULL.                          -999.2500:NULL VALUE
 COMP.     WOODSIDE ENERGY LTD.          :COMPANY                                          
 WELL.     TOROSA-1                      :WELL                                             
 FLD .     TOROSA                        :FIELD                                            
 LOC .                                   :LOCATION
 PROV.     AUSTRALIA                     :PROVINCE                                         
 SRVC.     READ WELL SERVICES            :SERVICE COMPANY
 DATE.     24/08 2007                    :LOG DATE
 UWI .                                   :UNIQUE WELL ID
~CURVE INFORMATION
#MNEM.UNIT                                DESCRIPTION
#--------- ------------------------------ -------------------------------
MD        .M                             :1 MEASURED DEPTH FROM RKB                                                       
TVD       .M                             :2 TRUE VERTICAL DEPTH FROM MSL                                                  
TIME      .MS                            :3 TWO-WAY TRAVEL TIME FROM MSL, DERIVED FROM CALIBRATED SONIC LOG               
DT        .US/F                          :4 UNCALIBRATED SONIC LOG. COMPUTED FROM CHECK SHOTS ABOVE 2875.3 M MD RKB.      
DTC_CS    .US/F                          :5 CHECK SHOT CALIBRATED SONIC LOG                                               
RHO_CS    .G/CC                          :6 DENSITY LOG                                                                   
VEL_CS    .M/S                           :7 CHECK SHOT CALIBRATED VELOCITY LOG                                            
AIMP_CS   .MSKM                          :8 ACOUSTIC IMPEDANCE LOG (M/S*KG/CUBICM)                                        
# LOG CURVES
~A MD         TVD          TIME         DT           DTC_CS       RHO_CS       VEL_CS       AIMP_CS    
# ...
    2182.4316     2161.3851     1710.6494       98.0552       98.0552        1.8000     3108.4923  5595286.1529
    2182.5840     2161.5377     1710.7476       98.0552       98.0552        1.8000     3108.4923  5595286.1529
    2182.7364     2161.6901     1710.8456       98.0552       98.0552        1.8000     3108.4923  5595286.1529
    2182.8888     2161.8424     1710.9435       98.0552       98.0552        1.8000     3108.4923  5595286.1529
    2183.0412     2161.9945     1711.0415       98.0552       98.0552        1.8000     3108.4923  5595286.1529
    2183.1936     2162.1469     1711.1396       98.0552       98.0552        1.8000     3108.4923  5595286.1529
    2183.3460     2162.2994     1711.2377       98.0552       98.0552        1.8000     3108.4923  5595286.1529
    2183.4984     2162.4518     1711.3357       98.0552       98.0552        1.8000     3108.4923  5595286.1529
    2183.6508     2162.6041     1711.4337       98.0552       98.0552        1.8000     3108.4923  5595286.1529
    2183.8032     2162.7562     1711.5316       98.0552       98.0552        1.8000     3108.4923  5595286.1529
    2183.9556     2162.9088     1711.6298       98.0552       98.0552        1.8000     3108.4923  5595286.1529
    2184.1080     2163.0612     1711.7278       98.0552       98.0552        1.8000     3108.4923  5595286.1529
    2184.2604     2163.2135     1711.8258       98.0552       98.0552        1.8000     3108.4923  5595286.1529
    2184.4128     2163.3658     1711.9238       98.0552       98.0552        1.8000     3108.4923  5595286.1529
    2184.5652     2163.5182     1712.0219       98.0552       98.0552        1.8000     3108.4923  5595286.1529
    2184.7176     2163.6705     1712.1199       98.0552       98.0552        1.8000     3108.4923  5595286.1529
    2184.8700     2163.8229     1712.2179       98.0552       98.0552        1.8000     3108.4923  5595286.1529
    2185.0224     2163.9752     1712.3159       98.0552       98.0552        1.8000     3108.4923  5595286.1529
    2185.1748     2164.1273     1712.4138       98.0552       98.0552        1.8000     3108.4923  5595286.1529
    2185.3272     2164.2799     1712.5118       98.0552       98.0552        1.8000     3108.4923  5595286.1529
    2185.4796     2164.4323     1712.6100       98.0552       98.0552        1.8000     3108.4923  5595286.1529
    2185.6320     2164.5846     1712.7080       98.0552       98.0552        1.8000     3108.4923  5595286.1529
    2185.7844     2164.7369     1712.8060       98.0552       98.0552        1.8000     3108.4923  5595286.1529
    2185.9368     2164.8893     1712.9039       98.0552       98.0552        1.8000     3108.4923  5595286.1529
    2186.0892     2165.0416     1713.0020       98.0552       98.0552        1.8000     3108.4923  5595286.1529
    2186.2416     2165.1940     1713.1001       98.0552       98.0552        1.8000     3108.4923  5595286.1529
    2186.3940     2165.3463     1713.1981       98.0552       98.0552        1.8000     3108.4923  5595286.1529
    2186.5464     2165.4989     1713.2961       98.0552       98.0552        1.8000     3108.4923  5595286.1529
    2186.6988     2165.6510     1713.3940       98.0552       98.0552        1.8000     3108.4923  5595286.1529
    2186.8512     2165.8033     1713.4921       98.0552       98.0552        1.8000     3108.4923  5595286.1529
    2187.0036     2165.9557     1713.5901       98.0552       98.0552        1.8000     3108.4923  5595286.1529
    2187.1560     2166.1080     1713.6881       98.0552       98.0552        1.8000     3108.4923  5595286.1529
    2187.3084     2166.2604     1713.7861       98.0552       98.0552        1.8000     3108.4923  5595286.1529
    2187.4608     2166.4127     1713.8842       98.0552       98.0552        1.8000     3108.4923  5595286.1529
    2187.6132     2166.5651     1713.9822       98.0552       98.0552        1.8000     3108.4923  5595286.1529
    2187.7656     2166.7174     1714.0802       98.0552       98.0552        1.8000     3108.4923  5595286.1529
    2187.9180     2166.8700     1714.1782       98.0552       98.0552        1.8000     3108.4923  5595286.1529
    2188.0704     2167.0221     1714.2762       98.0552       98.0552        1.8000     3108.4923  5595286.1529
    2188.2228     2167.1744     1714.3743       98.0552       98.0552        1.8000     3108.4923  5595286.1529
    2188.3752     2167.3268     1714.4723       98.0552       98.0552        1.8000     3108.4923  5595286.1529
    2188.5276     2167.4794     1714.5704       98.0552       98.0552        1.8000     3108.4923  5595286.1529
    2188.6800     2167.6317     1714.6685       98.0552       98.0552        1.8000     3108.4923  5595286.1529
    2188.8324     2167.7838     1714.7664       98.0552       98.0552        1.8000     3108.4923  5595286.1529
    2188.9848     2167.9362     1714.8644       98.0552       98.0552        1.8000     3108.4923  5595286.1529
    2189.1372     2168.0885     1714.9624       98.0552       98.0552        1.8000     3108.4923  5595286.1529
    2189.2896     2168.2411     1715.0605       98.0552       98.0552        1.8000     3108.4923  5595286.1529
    2189.4420     2168.3932     1715.1584       98.0552       98.0552        1.8000     3108.4923  5595286.1529
    2189.5944     2168.5455     1715.2565       98.0552       98.0552        1.8000     3108.4923  5595286.1529
    2189.7468     2168.6979     1715.3545       98.0552       98.0552        1.8000     3108.4923  5595286.1529
    2189.8992     2168.8505     1715.4526       98.0552       98.0552        1.8000     3108.4923  5595286.1529
    2190.0516     2169.0028     1715.5507       98.0552       98.0552        1.8000     3108.4923  5595286.1529
    2190.2040     2169.1549     1715.6486       98.0552       98.0552        1.8000     3108.4923  5595286.1529
    2190.3564     2169.3073     1715.7466       98.0552       98.0552        1.8000     3108.4923  5595286.1529
    2190.5088     2169.4598     1715.8447       98.0552       98.0552        1.8000     3108.4923  5595286.1529
    2190.6612     2169.6122     1715.9427       98.0552       98.0552        1.8000     3108.4923  5595286.1529
    2190.8136     2169.7645     1716.0406       98.0552       98.0552        1.8000     3108.4923  5595286.1529
    2190.9660     2169.9166     1716.1385       98.0552       98.0552        1.8000     3108.4923  5595286.1529
    2191.1184     2170.0690     1716.2367       98.0552       98.0552        1.8000     3108.4923  5595286.1529
    2191.2708     2170.2216     1716.3348       98.0552       98.0552        1.8000     3108.4923  5595286.1529
    2191.4232     2170.3739     1716.4327       98.0552       98.0552        1.8000     3108.4923  5595286.1529
    2191.5756     2170.5260     1716.5306       98.0552       98.0552        1.8000     3108.4923  5595286.1529
    2191.7280     2170.6783     1716.6287       98.0552       98.0552        1.8000     3108.4923  5595286.1529
    2191.8804     2170.8309     1716.7268       98.0552       98.0552        1.8000     3108.4923  5595286.1529
    2192.0328     2170.9833     1716.8248       98.0552       98.0552        1.8000     3108.4923  5595286.1529
    2192.1852     2171.1356     1716.9229       98.0552       98.0552        1.8000     3108.4923  5595286.1529
    2192.3376     2171.2877     1717.0208       98.0552       98.0552        1.8000     3108.4923  5595286.1529
    2192.4900     2171.4403     1717.1189       98.0552       98.0552        1.8000     3108.4923  5595286.1529
    2192.6424     2171.5927     1717.2169       98.0552       98.0552        1.8000     3108.4923  5595286.1529
    2192.7948     2171.7450     1717.3149       98.0552       98.0552        1.8000     3108.4923  5595286.1529
    2192.9472     2171.8973     1717.4128       98.0552       98.0552        1.8000     3108.4923  5595286.1529
    2193.0996     2172.0494     1717.5109       98.0552       98.0552        1.8000     3108.4923  5595286.1529
    2193.2520     2172.2020     1717.6090       98.0552       98.0552        1.8000     3108.4923  5595286.1529
