~VERSION INFORMATION
VERS.                                   2:CWLS LOG ASCII STANDARD - VERSION 2.0
WRAP.                                  NO:ONE LINE PER DEPTH STEP
~WELL INFORMATION
#MNEM.UNIT              DATA              DESCRIPTION
#--------- ------------------------------ -------------------------------
 STRT.M                           20.7900:START DEPTH
 STOP.M                         4665.7896:STOP DEPTH
 STEP.M                            0.1524:STEP
 NULL.                          -999.2500:NULL VALUE
 COMP.     WOODSIDE ENERGY LTD.          :COMPANY                                          
 WELL.     TOROSA-1                      :WELL                                             
 FLD .     TOROSA                        :FIELD                                            
 LOC .                                   :LOCATION
 PROV.     AUSTRALIA                     :PROVINCE                                         
 SRVC.     READ WELL SERVICES            :SERVICE COMPANY
 DATE.     24/08 2007                    :LOG DATE
 UWI .                                   :UNIQUE WELL ID
~CURVE INFORMATION
#MNEM.UNIT                                DESCRIPTION
#--------- ------------------------------ -------------------------------
MD        .M                             :1 MEASURED DEPTH FROM RKB                                                       
TVD       .M                             :2 TRUE VERTICAL DEPTH FROM MSL                                                  
TIME      .MS                            :3 TWO-WAY TRAVEL TIME FROM MSL, DERIVED FROM CALIBRATED SONIC LOG               
DT        .US/F                          :4 UNCALIBRATED SONIC LOG. COMPUTED FROM CHECK SHOTS ABOVE 2875.3 M MD RKB.      
DTC_CS    .US/F                          :5 CHECK SHOT CALIBRATED SONIC LOG                                               
RHO_CS    .G/CC                          :6 DENSITY LOG                                                                   
VEL_CS    .M/S                           :7 CHECK SHOT CALIBRATED VELOCITY LOG                                            
AIMP_CS   .MSKM                          :8 ACOUSTIC IMPEDANCE LOG (M/S*KG/CUBICM)                                        
# LOG CURVES
~A MD         TVD          TIME         DT           DTC_CS       RHO_CS       VEL_CS       AIMP_CS    
# ...
     942.5052      921.7053      913.0410       98.0552       98.0552        1.8000     3108.4923  5595286.1529
     942.6576      921.8577      913.1390       98.0552       98.0552        1.8000     3108.4923  5595286.1529
     942.8100      922.0101      913.2371       98.0552       98.0552        1.8000     3108.4923  5595286.1529
     942.9624      922.1625      913.3351       98.0552       98.0552        1.8000     3108.4923  5595286.1529
     943.1148      922.3149      913.4332       98.0552       98.0552        1.8000     3108.4923  5595286.1529
     943.2672      922.4673      913.5312       98.0552       98.0552        1.8000     3108.4923  5595286.1529
     943.4196      922.6197      913.6293       98.0552       98.0552        1.8000     3108.4923  5595286.1529
     943.5720      922.7721      913.7274       98.0552       98.0552        1.8000     3108.4923  5595286.1529
     943.7244      922.9245      913.8254       98.0552       98.0552        1.8000     3108.4923  5595286.1529
     943.8768      923.0768      913.9235       98.0552       98.0552        1.8000     3108.4923  5595286.1529
     944.0292      923.2292      914.0215       98.0552       98.0552        1.8000     3108.4923  5595286.1529
     944.1816      923.3817      914.1196       98.0552       98.0552        1.8000     3108.4923  5595286.1529
     944.3340      923.5341      914.2176       98.0552       98.0552        1.8000     3108.4923  5595286.1529
     944.4864      923.6865      914.3157       98.0552       98.0552        1.8000     3108.4923  5595286.1529
     944.6388      923.8389      914.4138       98.0552       98.0552        1.8000     3108.4923  5595286.1529
     944.7912      923.9913      914.5118       98.0552       98.0552        1.8000     3108.4923  5595286.1529
     944.9436      924.1437      914.6099       98.0552       98.0552        1.8000     3108.4923  5595286.1529
     945.0960      924.2961      914.7079       98.0552       98.0552        1.8000     3108.4923  5595286.1529
     945.2484      924.4485      914.8060       98.0552       98.0552        1.8000     3108.4923  5595286.1529
     945.4008      924.6009      914.9040       98.0552       98.0552        1.8000     3108.4923  5595286.1529
     945.5532      924.7533      915.0021       98.0552       98.0552        1.8000     3108.4923  5595286.1529
     945.7056      924.9057      915.1001       98.0552       98.0552        1.8000     3108.4923  5595286.1529
     945.8580      925.0580      915.1982       98.0552       98.0552        1.8000     3108.4923  5595286.1529
     946.0104      925.2105      915.2962       98.0552       98.0552        1.8000     3108.4923  5595286.1529
     946.1628      925.3629      915.3943       98.0552       98.0552        1.8000     3108.4923  5595286.1529
     946.3152      925.5153      915.4923       98.0552       98.0552        1.8000     3108.4923  5595286.1529
     946.4676      925.6677      915.5904       98.0552       98.0552        1.8000     3108.4923  5595286.1529
     946.6200      925.8201      915.6885       98.0552       98.0552        1.8000     3108.4923  5595286.1529
     946.7724      925.9725      915.7865       98.0552       98.0552        1.8000     3108.4923  5595286.1529
     946.9248      926.1249      915.8846       98.0552       98.0552        1.8000     3108.4923  5595286.1529
     947.0772      926.2773      915.9826       98.0552       98.0552        1.8000     3108.4923  5595286.1529
     947.2296      926.4297      916.0807       98.0552       98.0552        1.8000     3108.4923  5595286.1529
     947.3820      926.5821      916.1787       98.0552       98.0552        1.8000     3108.4923  5595286.1529
     947.5344      926.7345      916.2768       98.0552       98.0552        1.8000     3108.4923  5595286.1529
     947.6868      926.8869      916.3748       98.0552       98.0552        1.8000     3108.4923  5595286.1529
     947.8392      927.0392      916.4729       98.0552       98.0552        1.8000     3108.4923  5595286.1529
     947.9916      927.1917      916.5709       98.0552       98.0552        1.8000     3108.4923  5595286.1529
     948.1440      927.3441      916.6689       98.0552       98.0552        1.8000     3108.4923  5595286.1529
     948.2964      927.4965      916.7670       98.0552       98.0552        1.8000     3108.4923  5595286.1529
     948.4488      927.6489      916.8651       98.0552       98.0552        1.8000     3108.4923  5595286.1529
     948.6012      927.8013      916.9631       98.0552       98.0552        1.8000     3108.4923  5595286.1529
     948.7536      927.9537      917.0612       98.0552       98.0552        1.8000     3108.4923  5595286.1529
     948.9060      928.1061      917.1593       98.0552       98.0552        1.8000     3108.4923  5595286.1529
     949.0584      928.2585      917.2573       98.0552       98.0552        1.8000     3108.4923  5595286.1529
     949.2108      928.4109      917.3554       98.0552       98.0552        1.8000     3108.4923  5595286.1529
     949.3632      928.5633      917.4534       98.0552       98.0552        1.8000     3108.4923  5595286.1529
     949.5156      928.7157      917.5515       98.0552       98.0552        1.8000     3108.4923  5595286.1529
     949.6680      928.8680      917.6495       98.0552       98.0552        1.8000     3108.4923  5595286.1529
     949.8204      929.0204      917.7476       98.0552       98.0552        1.8000     3108.4923  5595286.1529
     949.9728      929.1729      917.8456       98.0552       98.0552        1.8000     3108.4923  5595286.1529
     950.1252      929.3253      917.9437       98.0552       98.0552        1.8000     3108.4923  5595286.1529
     950.2776      929.4777      918.0417       98.0552       98.0552        1.8000     3108.4923  5595286.1529
     950.4300      929.6301      918.1398       98.0552       98.0552        1.8000     3108.4923  5595286.1529
     950.5824      929.7825      918.2379       98.0552       98.0552        1.8000     3108.4923  5595286.1529
     950.7348      929.9349      918.3359       98.0552       98.0552        1.8000     3108.4923  5595286.1529
     950.8872      930.0873      918.4340       98.0552       98.0552        1.8000     3108.4923  5595286.1529
     951.0396      930.2397      918.5320       98.0552       98.0552        1.8000     3108.4923  5595286.1529
     951.1920      930.3921      918.6301       98.0552       98.0552        1.8000     3108.4923  5595286.1529
     951.3444      930.5445      918.7281       98.0552       98.0552        1.8000     3108.4923  5595286.1529
     951.4968      930.6969      918.8262       98.0552       98.0552        1.8000     3108.4923  5595286.1529
     951.6492      930.8492      918.9243       98.0552       98.0552        1.8000     3108.4923  5595286.1529
     951.8016      931.0016      919.0223       98.0552       98.0552        1.8000     3108.4923  5595286.1529
     951.9540      931.1541      919.1204       98.0552       98.0552        1.8000     3108.4923  5595286.1529
     952.1064      931.3065      919.2184       98.0552       98.0552        1.8000     3108.4923  5595286.1529
     952.2588      931.4589      919.3164       98.0552       98.0552        1.8000     3108.4923  5595286.1529
     952.4112      931.6113      919.4145       98.0552       98.0552        1.8000     3108.4923  5595286.1529
     952.5636      931.7637      919.5126       98.0552       98.0552        1.8000     3108.4923  5595286.1529
     952.7160      931.9161      919.6107       98.0552       98.0552        1.8000     3108.4923  5595286.1529
     952.8684      932.0685      919.7087       98.0552       98.0552        1.8000     3108.4923  5595286.1529
     953.0208      932.2209      919.8068       98.0552       98.0552        1.8000     3108.4923  5595286.1529
     953.1732      932.3733      919.9048       98.0552       98.0552        1.8000     3108.4923  5595286.1529
     953.3256      932.5257      920.0028       98.0552       98.0552        1.8000     3108.4923  5595286.1529
