~VERSION INFORMATION
VERS.                                   2:CWLS LOG ASCII STANDARD - VERSION 2.0
WRAP.                                  NO:ONE LINE PER DEPTH STEP
~WELL INFORMATION
#MNEM.UNIT              DATA              DESCRIPTION
#--------- ------------------------------ -------------------------------
 STRT.M                           20.7900:START DEPTH
 STOP.M                         4665.7896:STOP DEPTH
 STEP.M                            0.1524:STEP
 NULL.                          -999.2500:NULL VALUE
 COMP.     WOODSIDE ENERGY LTD.          :COMPANY                                          
 WELL.     TOROSA-1                      :WELL                                             
 FLD .     TOROSA                        :FIELD                                            
 LOC .                                   :LOCATION
 PROV.     AUSTRALIA                     :PROVINCE                                         
 SRVC.     READ WELL SERVICES            :SERVICE COMPANY
 DATE.     24/08 2007                    :LOG DATE
 UWI .                                   :UNIQUE WELL ID
~CURVE INFORMATION
#MNEM.UNIT                                DESCRIPTION
#--------- ------------------------------ -------------------------------
MD        .M                             :1 MEASURED DEPTH FROM RKB                                                       
TVD       .M                             :2 TRUE VERTICAL DEPTH FROM MSL                                                  
TIME      .MS                            :3 TWO-WAY TRAVEL TIME FROM MSL, DERIVED FROM CALIBRATED SONIC LOG               
DT        .US/F                          :4 UNCALIBRATED SONIC LOG. COMPUTED FROM CHECK SHOTS ABOVE 2875.3 M MD RKB.      
DTC_CS    .US/F                          :5 CHECK SHOT CALIBRATED SONIC LOG                                               
RHO_CS    .G/CC                          :6 DENSITY LOG                                                                   
VEL_CS    .M/S                           :7 CHECK SHOT CALIBRATED VELOCITY LOG                                            
AIMP_CS   .MSKM                          :8 ACOUSTIC IMPEDANCE LOG (M/S*KG/CUBICM)                                        
# LOG CURVES
~A MD         TVD          TIME         DT           DTC_CS       RHO_CS       VEL_CS       AIMP_CS    
# ...
    3729.5964     3708.2277     2532.0117       86.4571       87.7365        2.5655     3474.0808  8912715.7100
    3729.7488     3708.3803     2532.1008       88.9772       90.2565        2.5517     3377.0816  8617302.3736
    3729.9012     3708.5326     2532.1919       90.5059       91.7853        2.5381     3320.8344  8428599.4971
    3730.0536     3708.6847     2532.2837       90.7720       92.0513        2.5363     3311.2363  8398429.4599
    3730.2060     3708.8370     2532.3752       89.9455       91.2248        2.5204     3341.2363  8421251.6144
    3730.3584     3708.9896     2532.4656       87.9671       89.2465        2.5123     3415.3013  8580155.2914
    3730.5108     3709.1417     2532.5535       85.3580       86.6373        2.5177     3518.1574  8857811.2519
    3730.6632     3709.2941     2532.6389       83.1118       84.3911        2.5190     3611.7974  9097949.6498
    3730.8156     3709.4464     2532.7222       81.2122       82.4916        2.5182     3694.9684  9304648.1644
    3730.9680     3709.5985     2532.8042       80.1679       81.4473        2.5385     3742.3448  9499923.1530
    3731.1204     3709.7511     2532.8855       80.1273       81.4066        2.5635     3744.2122  9598367.7754
    3731.2728     3709.9034     2532.9670       80.3341       81.6135        2.5699     3734.7214  9597869.2245
    3731.4252     3710.0558     2533.0486       80.2716       81.5509        2.5725     3737.5864  9614780.0723
    3731.5776     3710.2079     2533.1301       80.1615       81.4409        2.5721     3742.6381  9626430.0102
    3731.7300     3710.3605     2533.2117       80.3880       81.6673        2.5698     3732.2598  9591259.7641
    3731.8824     3710.5128     2533.2935       81.1314       82.4108        2.5633     3698.5911  9480443.6823
    3732.0348     3710.6649     2533.3765       82.1780       83.4574        2.5550     3652.2090  9331308.1518
    3732.1872     3710.8173     2533.4604       83.5276       84.8070        2.5594     3594.0879  9198717.9295
    3732.3396     3710.9696     2533.5459       84.6968       85.9761        2.5646     3545.2138  9091944.6027
    3732.4920     3711.1220     2533.6318       84.7635       86.0429        2.5576     3542.4621  9060237.1561
    3732.6444     3711.2743     2533.7170       83.2605       84.5399        2.5376     3605.4421  9149172.1100
    3732.7968     3711.4266     2533.8003       80.8932       82.1726        2.5144     3709.3127  9326701.1658
    3732.9492     3711.5787     2533.8813       78.9618       80.2412        2.5184     3798.5953  9566502.9475
    3733.1016     3711.7313     2533.9609       77.2720       78.5514        2.5434     3880.3101  9869211.0967
    3733.2540     3711.8837     2534.0388       76.2848       77.5642        2.5803     3929.6976 10139889.2877
    3733.4064     3712.0358     2534.1165       76.5043       77.7836        2.6061     3918.6092 10212202.4425
    3733.5588     3712.1881     2534.1946       76.9975       78.2769        2.5983     3893.9179 10117586.9070
    3733.7112     3712.3407     2534.2729       77.4148       78.6942        2.5694     3873.2683  9951965.8009
    3733.8636     3712.4928     2534.3516       77.3062       78.5855        2.5659     3878.6241  9952170.9054
    3734.0160     3712.6451     2534.4299       76.8608       78.1402        2.5706     3900.7285 10027076.7194
    3734.1684     3712.7975     2534.5078       76.6662       77.9455        2.5668     3910.4710 10037503.8996
    3734.3208     3712.9496     2534.5854       76.1541       77.4335        2.5782     3936.3307 10148747.8316
    3734.4732     3713.1022     2534.6628       75.8375       77.1169        2.5756     3952.4907 10180009.2315
    3734.6256     3713.2545     2534.7397       75.4189       76.6983        2.5555     3974.0634 10155636.9994
    3734.7780     3713.4066     2534.8157       74.3079       75.5873        2.5624     4032.4741 10332652.1312
    3734.9304     3713.5590     2534.8906       72.9935       74.2729        2.5739     4103.8358 10562698.1067
    3735.0828     3713.7115     2534.9641       71.5443       72.8237        2.5735     4185.5011 10771199.4191
    3735.2352     3713.8636     2535.0364       70.1200       71.3993        2.5736     4268.9993 10986699.4569
    3735.3876     3714.0160     2535.1072       69.2808       70.5602        2.5753     4319.7703 11124742.3754
    3735.5400     3714.1683     2535.1775       68.8860       70.1653        2.5974     4344.0793 11283491.0654
    3735.6924     3714.3207     2535.2476       69.1948       70.4742        2.6203     4325.0424 11332734.3468
    3735.8448     3714.4730     2535.3184       69.6985       70.9779        2.6318     4294.3479 11301837.8648
    3735.9972     3714.6254     2535.3894       69.5004       70.7797        2.6287     4306.3700 11320084.3291
    3736.1496     3714.7775     2535.4595       68.5041       69.7834        2.6185     4367.8516 11437387.0853
    3736.3020     3714.9298     2535.5286       67.0787       68.3581        2.6004     4458.9286 11595005.7153
    3736.4544     3715.0824     2535.5967       66.4927       67.7720        2.5885     4497.4856 11641576.4313
    3736.6068     3715.2345     2535.6648       67.6659       68.9452        2.5986     4420.9552 11488089.1502
    3736.7592     3715.3868     2535.7356       71.1221       72.4015        2.6166     4209.9116 11015699.8863
    3736.9116     3715.5392     2535.8108       76.8969       78.1763        2.6265     3898.9284 10240432.5648
    3737.0640     3715.6915     2535.8918       82.6987       83.9781        2.6236     3629.5638  9522366.8820
    3737.2164     3715.8439     2535.9780       87.3410       88.6204        2.6078     3439.4323  8969223.6839
    3737.3688     3715.9962     2536.0681       90.4803       91.7597        2.5791     3321.7606  8567204.6065
    3737.5212     3716.1483     2536.1604       91.8117       93.0911        2.5512     3274.2524  8353279.6585
    3737.6736     3716.3009     2536.2539       92.2466       93.5260        2.5260     3259.0264  8232455.0655
    3737.8260     3716.4532     2536.3472       92.2659       93.5452        2.5130     3258.3569  8188294.1812
    3737.9784     3716.6053     2536.4409       92.6291       93.9085        2.5014     3245.7520  8119061.5484
    3738.1308     3716.7577     2536.5352       93.2770       94.5564        2.5021     3223.5128  8065443.1162
    3738.2832     3716.9100     2536.6296       93.3745       94.6539        2.5194     3220.1916  8112977.1188
    3738.4356     3717.0624     2536.7239       92.5818       93.8612        2.5225     3247.3890  8191525.7518
    3738.5880     3717.2147     2536.8167       90.2767       91.5560        2.5211     3329.1499  8393209.0139
    3738.7404     3717.3671     2536.9065       87.1022       88.3816        2.5185     3448.7235  8685713.8003
    3738.8928     3717.5192     2536.9937       84.8890       86.1684        2.5143     3537.3045  8893947.0797
    3739.0452     3717.6718     2537.0791       83.4042       84.6836        2.5357     3599.3259  9126842.9139
    3739.1976     3717.8241     2537.1631       82.0179       83.2972        2.5831     3659.2299  9452154.9482
    3739.3500     3717.9764     2537.2458       80.9524       82.2318        2.6029     3706.6403  9648153.7698
    3739.5024     3718.1285     2537.3274       79.6242       80.9035        2.5659     3767.4961  9666957.3089
    3739.6548     3718.2811     2537.4075       77.8359       79.1153        2.5315     3852.6523  9753055.5529
    3739.8072     3718.4335     2537.4854       75.6815       76.9608        2.5454     3960.5050 10081129.4964
    3739.9596     3718.5856     2537.5613       73.7374       75.0168        2.5709     4063.1390 10445951.8776
    3740.1120     3718.7379     2537.6357       72.7188       73.9982        2.5777     4119.0695 10617753.7084
    3740.2644     3718.8903     2537.7095       72.5792       73.8585        2.5904     4126.8586 10690350.6208
    3740.4168     3719.0426     2537.7837       73.3002       74.5796        2.5985     4086.9591 10619902.3626
