~VERSION INFORMATION
VERS.                                   2:CWLS LOG ASCII STANDARD - VERSION 2.0
WRAP.                                  NO:ONE LINE PER DEPTH STEP
~WELL INFORMATION
#MNEM.UNIT              DATA              DESCRIPTION
#--------- ------------------------------ -------------------------------
 STRT.M                           20.7900:START DEPTH
 STOP.M                         4665.7896:STOP DEPTH
 STEP.M                            0.1524:STEP
 NULL.                          -999.2500:NULL VALUE
 COMP.     WOODSIDE ENERGY LTD.          :COMPANY                                          
 WELL.     TOROSA-1                      :WELL                                             
 FLD .     TOROSA                        :FIELD                                            
 LOC .                                   :LOCATION
 PROV.     AUSTRALIA                     :PROVINCE                                         
 SRVC.     READ WELL SERVICES            :SERVICE COMPANY
 DATE.     24/08 2007                    :LOG DATE
 UWI .                                   :UNIQUE WELL ID
~CURVE INFORMATION
#MNEM.UNIT                                DESCRIPTION
#--------- ------------------------------ -------------------------------
MD        .M                             :1 MEASURED DEPTH FROM RKB                                                       
TVD       .M                             :2 TRUE VERTICAL DEPTH FROM MSL                                                  
TIME      .MS                            :3 TWO-WAY TRAVEL TIME FROM MSL, DERIVED FROM CALIBRATED SONIC LOG               
DT        .US/F                          :4 UNCALIBRATED SONIC LOG. COMPUTED FROM CHECK SHOTS ABOVE 2875.3 M MD RKB.      
DTC_CS    .US/F                          :5 CHECK SHOT CALIBRATED SONIC LOG                                               
RHO_CS    .G/CC                          :6 DENSITY LOG                                                                   
VEL_CS    .M/S                           :7 CHECK SHOT CALIBRATED VELOCITY LOG                                            
AIMP_CS   .MSKM                          :8 ACOUSTIC IMPEDANCE LOG (M/S*KG/CUBICM)                                        
# LOG CURVES
~A MD         TVD          TIME         DT           DTC_CS       RHO_CS       VEL_CS       AIMP_CS    
# ...
    4344.0732     4322.2692     2870.7673       62.9373       60.7964        2.7349     5013.5130 13711210.6214
    4344.2256     4322.4215     2870.8281       62.7554       60.6207        2.6911     5028.0436 13531027.8298
    4344.3780     4322.5739     2870.8884       62.2534       60.1358        2.6672     5068.5904 13518919.8705
    4344.5304     4322.7262     2870.9482       61.4295       59.3399        2.6000     5136.5701 13355029.0626
    4344.6828     4322.8785     2871.0073       61.0282       58.9523        2.5377     5170.3447 13120803.6948
    4344.8352     4323.0309     2871.0664       61.4815       59.3902        2.5891     5132.2210 13287896.6330
    4344.9876     4323.1832     2871.1267       63.0570       60.9120        2.6384     5003.9972 13202426.6107
    4345.1400     4323.3356     2871.1885       65.2039       62.9860        2.6403     4839.2311 12776986.5705
    4345.2924     4323.4879     2871.2527       67.4114       65.1183        2.6302     4680.7659 12311361.5555
    4345.4448     4323.6403     2871.3184       68.9798       66.6334        2.5709     4574.3361 11760066.3540
    4345.5972     4323.7926     2871.3850       68.9924       66.6456        2.5027     4573.5012 11446317.6558
    4345.7496     4323.9449     2871.4512       68.1162       65.7992        2.5193     4632.3315 11670142.5571
    4345.9020     4324.0973     2871.5164       66.8672       64.5927        2.5568     4718.8598 12065374.7353
    4346.0544     4324.2496     2871.5803       65.5038       63.2757        2.5754     4817.0758 12405757.7268
    4346.2068     4324.4020     2871.6428       64.2085       62.0245        2.5790     4914.2490 12673951.2369
    4346.3592     4324.5543     2871.7043       63.0635       60.9184        2.5585     5003.4781 12801466.9839
    4346.5116     4324.7072     2871.7651       62.4668       60.3420        2.5923     5051.2736 13094289.6548
    4346.6640     4324.8590     2871.8254       63.0423       60.8979        2.6319     5005.1630 13172856.4776
    4346.8164     4325.0114     2871.8870       64.4159       62.2248        2.6266     4898.4298 12866313.8058
    4346.9688     4325.1637     2871.9502       66.1622       63.9117        2.6228     4769.1389 12508292.2469
    4347.1212     4325.3160     2872.0149       67.8908       65.5815        2.6023     4647.7104 12094791.0431
    4347.2736     4325.4684     2872.0808       68.9197       66.5754        2.5818     4578.3237 11820299.0484
    4347.4260     4325.6207     2872.1477       69.2151       66.8608        2.5875     4558.7827 11795834.9429
    4347.5784     4325.7731     2872.2144       69.0824       66.7325        2.5867     4567.5442 11815057.1997
    4347.7308     4325.9254     2872.2808       68.4474       66.1192        2.5660     4609.9133 11829006.3857
    4347.8832     4326.0782     2872.3464       67.5527       65.2549        2.5528     4670.9730 11923865.5805
    4348.0356     4326.2301     2872.4111       66.3919       64.1335        2.5319     4752.6434 12033094.9804
    4348.1880     4326.3824     2872.4746       65.2530       63.0334        2.5031     4835.5923 12103867.5182
    4348.3404     4326.5348     2872.5374       64.6279       62.4296        2.4848     4882.3602 12131482.7154
    4348.4928     4326.6871     2872.5996       64.0193       61.8417        2.4982     4928.7752 12312900.1454
    4348.6452     4326.8395     2872.6606       62.9925       60.8498        2.5278     5009.1137 12662239.6922
    4348.7976     4326.9918     2872.7212       61.9839       59.8755        2.5578     5090.6218 13020621.1394
    4348.9500     4327.1442     2872.7805       60.9237       58.8514        2.5944     5179.2096 13436964.4903
    4349.1024     4327.2965     2872.8389       59.7838       57.7502        2.6072     5277.9652 13760934.8607
    4349.2548     4327.4493     2872.8962       58.8741       56.8715        2.6175     5359.5147 14028413.8826
    4349.4072     4327.6017     2872.9529       58.5925       56.5995        2.6402     5385.2768 14218371.8901
    4349.5596     4327.7535     2873.0095       58.7002       56.7035        2.6341     5375.3942 14159354.2008
    4349.7120     4327.9059     2873.0664       59.2103       57.1962        2.6321     5329.0868 14026500.0036
    4349.8644     4328.0582     2873.1238       59.8066       57.7722        2.6288     5275.9563 13869389.5354
    4350.0168     4328.2106     2873.1816       59.9881       57.9476        2.5939     5259.9902 13643865.0489
    4350.1692     4328.3629     2873.2395       59.6924       57.6619        2.5717     5286.0480 13594309.1805
    4350.3216     4328.5153     2873.2966       58.9411       56.9362        2.5895     5353.4231 13862558.7064
    4350.4740     4328.6676     2873.3533       58.0428       56.0685        2.5899     5436.2782 14079175.9585
    4350.6264     4328.8204     2873.4092       57.6617       55.7003        2.5885     5472.2062 14164791.5627
    4350.7788     4328.9728     2873.4648       57.7380       55.7740        2.6176     5464.9753 14304880.8004
    4350.9312     4329.1246     2873.5205       58.0793       56.1037        2.6408     5432.8657 14347023.2333
    4351.0836     4329.2770     2873.5769       58.6192       56.6252        2.6409     5382.8268 14215414.2395
    4351.2360     4329.4293     2873.6338       59.1779       57.1650        2.6509     5332.0024 14134534.4671
    4351.3884     4329.5817     2873.6914       59.9395       57.9006        2.6206     5264.2541 13795643.1565
    4351.5408     4329.7340     2873.7498       60.9905       58.9159        2.5647     5173.5378 13268366.4419
    4351.6932     4329.8864     2873.8093       62.1585       60.0441        2.5735     5076.3282 13064028.9696
    4351.8456     4330.0392     2873.8701       63.7002       61.5334        2.6137     4953.4663 12947018.4507
    4351.9980     4330.1915     2873.9326       65.4366       63.2108        2.6281     4822.0207 12672973.0234
    4352.1504     4330.3439     2873.9963       66.6055       64.3398        2.5997     4737.4018 12315957.7286
    4352.3028     4330.4957     2874.0605       66.6677       64.4000        2.5530     4732.9787 12083322.3508
    4352.4552     4330.6481     2874.1245       65.6611       63.4277        2.5201     4805.5328 12110460.6873
    4352.6076     4330.8004     2874.1868       63.4973       61.3374        2.5084     4969.2931 12465026.9304
    4352.7600     4330.9528     2874.2468       61.3588       59.2716        2.5266     5142.4882 12992890.9865
    4352.9124     4331.1051     2874.3052       59.4446       57.4226        2.5557     5308.0818 13565868.8611
    4353.0648     4331.2574     2874.3623       58.3753       56.3897        2.5926     5405.3092 14013924.1205
    4353.2172     4331.4103     2874.4187       58.3665       56.3812        2.6248     5406.1249 14190051.3186
    4353.3696     4331.5626     2874.4751       58.4491       56.4610        2.6315     5398.4860 14205987.0112
    4353.5220     4331.7150     2874.5315       58.6575       56.6622        2.6359     5379.3087 14179375.9227
    4353.6744     4331.8668     2874.5881       58.7610       56.7622        2.6351     5369.8367 14149840.7707
    4353.8268     4332.0192     2874.6448       58.6568       56.6616        2.6106     5379.3704 14043458.6201
    4353.9792     4332.1715     2874.7017       58.6675       56.6719        2.6070     5378.3906 14021552.1866
    4354.1316     4332.3239     2874.7583       59.0492       57.0407        2.6058     5343.6221 13924379.4179
    4354.2840     4332.4762     2874.8157       59.8317       57.7965        2.6055     5273.7400 13740900.9227
    4354.4364     4332.6285     2874.8743       60.9746       58.9005        2.6206     5174.8918 13561213.0168
    4354.5888     4332.7814     2874.9338       62.1217       60.0086        2.6303     5079.3339 13360301.5173
    4354.7412     4332.9337     2874.9941       62.7549       60.6203        2.6115     5028.0791 13130900.4272
    4354.8936     4333.0861     2875.0547       62.7018       60.5689        2.5709     5032.3433 12937733.4588
