~VERSION INFORMATION
VERS.                                   2:CWLS LOG ASCII STANDARD - VERSION 2.0
WRAP.                                  NO:ONE LINE PER DEPTH STEP
~WELL INFORMATION
#MNEM.UNIT              DATA              DESCRIPTION
#--------- ------------------------------ -------------------------------
 STRT.M                           20.7900:START DEPTH
 STOP.M                         4665.7896:STOP DEPTH
 STEP.M                            0.1524:STEP
 NULL.                          -999.2500:NULL VALUE
 COMP.     WOODSIDE ENERGY LTD.          :COMPANY                                          
 WELL.     TOROSA-1                      :WELL                                             
 FLD .     TOROSA                        :FIELD                                            
 LOC .                                   :LOCATION
 PROV.     AUSTRALIA                     :PROVINCE                                         
 SRVC.     READ WELL SERVICES            :SERVICE COMPANY
 DATE.     24/08 2007                    :LOG DATE
 UWI .                                   :UNIQUE WELL ID
~CURVE INFORMATION
#MNEM.UNIT                                DESCRIPTION
#--------- ------------------------------ -------------------------------
MD        .M                             :1 MEASURED DEPTH FROM RKB                                                       
TVD       .M                             :2 TRUE VERTICAL DEPTH FROM MSL                                                  
TIME      .MS                            :3 TWO-WAY TRAVEL TIME FROM MSL, DERIVED FROM CALIBRATED SONIC LOG               
DT        .US/F                          :4 UNCALIBRATED SONIC LOG. COMPUTED FROM CHECK SHOTS ABOVE 2875.3 M MD RKB.      
DTC_CS    .US/F                          :5 CHECK SHOT CALIBRATED SONIC LOG                                               
RHO_CS    .G/CC                          :6 DENSITY LOG                                                                   
VEL_CS    .M/S                           :7 CHECK SHOT CALIBRATED VELOCITY LOG                                            
AIMP_CS   .MSKM                          :8 ACOUSTIC IMPEDANCE LOG (M/S*KG/CUBICM)                                        
# LOG CURVES
~A MD         TVD          TIME         DT           DTC_CS       RHO_CS       VEL_CS       AIMP_CS    
# ...
     328.0284      307.2384      403.2000      200.0024      200.0024        1.0000     1524.0000  1524000.0057
     328.1808      307.3908      403.4000      200.0024      200.0024        1.0000     1524.0000  1524000.0057
     328.3332      307.5432      403.5999      200.0024      200.0024        1.0000     1524.0000  1524000.0057
     328.4856      307.6956      403.8000      200.0024      200.0024        1.0000     1524.0000  1524000.0057
     328.6380      307.8480      404.0000      200.0024      200.0024        1.0000     1524.0000  1524000.0057
     328.7904      308.0004      404.2000      200.0024      200.0024        1.0000     1524.0000  1524000.0057
     328.9428      308.1528      404.4000      200.0024      200.0024        1.0000     1524.0000  1524000.0057
     329.0952      308.3052      404.6000      200.0024      200.0024        1.0000     1524.0000  1524000.0057
     329.2476      308.4576      404.8000      200.0024      200.0024        1.0000     1524.0000  1524000.0057
     329.4000      308.6100      405.0000      200.0024      200.0024        1.0000     1524.0000  1524000.0057
     329.5524      308.7624      405.2000      200.0024      200.0024        1.0000     1524.0000  1524000.0057
     329.7048      308.9148      405.4000      200.0024      200.0024        1.0000     1524.0000  1524000.0057
     329.8572      309.0672      405.6000      200.0024      200.0024        1.0000     1524.0000  1524000.0057
     330.0096      309.2196      405.8000      200.0024      200.0024        1.0000     1524.0000  1524000.0057
     330.1620      309.3720      406.0000      200.0024      200.0024        1.0000     1524.0000  1524000.0057
     330.3144      309.5244      406.2000      200.0024      200.0024        1.0000     1524.0000  1524000.0057
     330.4668      309.6768      406.4000      200.0024      200.0024        1.0000     1524.0000  1524000.0057
     330.6192      309.8292      406.6000      200.0024      200.0024        1.0000     1524.0000  1524000.0057
     330.7716      309.9816      406.8000      200.0024      200.0024        1.0000     1524.0000  1524000.0057
     330.9240      310.1340      407.0000      200.0024      200.0024        1.0000     1524.0000  1524000.0057
     331.0764      310.2864      407.2000      200.0024      200.0024        1.0000     1524.0000  1524000.0057
     331.2288      310.4388      407.4000      200.0024      200.0024        1.0000     1524.0000  1524000.0057
     331.3812      310.5912      407.6000      200.0024      200.0024        1.0000     1524.0000  1524000.0057
     331.5336      310.7436      407.8000      200.0024      200.0024        1.0000     1524.0000  1524000.0057
     331.6860      310.8960      408.0000      200.0024      200.0024        1.0000     1524.0000  1524000.0057
     331.8384      311.0484      408.2000      200.0024      200.0024        1.0000     1524.0000  1524000.0057
     331.9908      311.2008      408.4000      200.0024      200.0024        1.0000     1524.0000  1524000.0057
     332.1432      311.3532      408.6000      200.0024      200.0024        1.0000     1524.0000  1524000.0057
     332.2956      311.5056      408.8000      200.0024      200.0024        1.0000     1524.0000  1524000.0057
     332.4480      311.6580      409.0000      200.0024      200.0024        1.0000     1524.0000  1524000.0057
     332.6004      311.8104      409.2000      200.0024      200.0024        1.0000     1524.0000  1524000.0057
     332.7528      311.9628      409.4000      200.0024      200.0024        1.0000     1524.0000  1524000.0057
     332.9052      312.1152      409.6000      200.0024      200.0024        1.0000     1524.0000  1524000.0057
     333.0576      312.2676      409.8000      200.0024      200.0024        1.0000     1524.0000  1524000.0057
     333.2100      312.4200      410.0000      200.0024      200.0024        1.0000     1524.0000  1524000.0057
     333.3624      312.5724      410.2000      200.0024      200.0024        1.0000     1524.0000  1524000.0057
     333.5148      312.7248      410.4000      200.0024      200.0024        1.0000     1524.0000  1524000.0057
     333.6672      312.8772      410.6000      200.0024      200.0024        1.0000     1524.0000  1524000.0057
     333.8196      313.0296      410.8000      200.0024      200.0024        1.0000     1524.0000  1524000.0057
     333.9720      313.1820      411.0000      200.0024      200.0024        1.0000     1524.0000  1524000.0057
     334.1244      313.3344      411.2000      200.0024      200.0024        1.0000     1524.0000  1524000.0057
     334.2768      313.4868      411.4000      200.0024      200.0024        1.0000     1524.0000  1524000.0057
     334.4292      313.6392      411.6000      200.0024      200.0024        1.0000     1524.0000  1524000.0057
     334.5816      313.7916      411.8000      200.0024      200.0024        1.0000     1524.0000  1524000.0057
     334.7340      313.9440      412.0000      200.0024      200.0024        1.0000     1524.0000  1524000.0057
     334.8864      314.0964      412.2000      200.0024      200.0024        1.0000     1524.0000  1524000.0057
     335.0388      314.2488      412.4000      200.0024      200.0024        1.0000     1524.0000  1524000.0057
     335.1912      314.4012      412.6000      200.0024      200.0024        1.0000     1524.0000  1524000.0057
     335.3436      314.5536      412.8000      200.0024      200.0024        1.0000     1524.0000  1524000.0057
     335.4960      314.7060      413.0000      200.0024      200.0024        1.0000     1524.0000  1524000.0057
     335.6484      314.8584      413.2000      200.0024      200.0024        1.0000     1524.0000  1524000.0057
     335.8008      315.0108      413.4000      200.0024      200.0024        1.0000     1524.0000  1524000.0057
     335.9532      315.1632      413.6000      200.0024      200.0024        1.0000     1524.0000  1524000.0057
     336.1056      315.3156      413.8000      200.0024      200.0024        1.0000     1524.0000  1524000.0057
     336.2580      315.4680      414.0000      200.0024      200.0024        1.0000     1524.0000  1524000.0057
     336.4104      315.6204      414.2000      200.0024      200.0024        1.0000     1524.0000  1524000.0057
     336.5628      315.7728      414.4000      200.0024      200.0024        1.0000     1524.0000  1524000.0057
     336.7152      315.9252      414.6000      200.0024      200.0024        1.0000     1524.0000  1524000.0057
     336.8676      316.0776      414.8000      200.0024      200.0024        1.0000     1524.0000  1524000.0057
     337.0200      316.2300      415.0000      200.0024      200.0024        1.0000     1524.0000  1524000.0057
     337.1724      316.3824      415.2000      200.0024      200.0024        1.0000     1524.0000  1524000.0057
     337.3248      316.5348      415.4000      200.0024      200.0024        1.0000     1524.0000  1524000.0057
     337.4772      316.6872      415.6000      200.0024      200.0024        1.0000     1524.0000  1524000.0057
     337.6296      316.8396      415.8000      200.0024      200.0024        1.0000     1524.0000  1524000.0057
     337.7820      316.9920      416.0000      200.0024      200.0024        1.0000     1524.0000  1524000.0057
     337.9344      317.1444      416.2000      200.0024      200.0024        1.0000     1524.0000  1524000.0057
     338.0868      317.2968      416.4000      200.0024      200.0024        1.0000     1524.0000  1524000.0057
     338.2392      317.4492      416.6000      200.0024      200.0024        1.0000     1524.0000  1524000.0057
     338.3916      317.6016      416.8000      200.0024      200.0024        1.0000     1524.0000  1524000.0057
     338.5440      317.7540      417.0000      200.0024      200.0024        1.0000     1524.0000  1524000.0057
     338.6964      317.9064      417.2000      200.0024      200.0024        1.0000     1524.0000  1524000.0057
     338.8488      318.0588      417.4000      200.0024      200.0024        1.0000     1524.0000  1524000.0057
