~VERSION INFORMATION
VERS.                                   2:CWLS LOG ASCII STANDARD - VERSION 2.0
WRAP.                                  NO:ONE LINE PER DEPTH STEP
~WELL INFORMATION
#MNEM.UNIT              DATA              DESCRIPTION
#--------- ------------------------------ -------------------------------
 STRT.M                           20.7900:START DEPTH
 STOP.M                         4665.7896:STOP DEPTH
 STEP.M                            0.1524:STEP
 NULL.                          -999.2500:NULL VALUE
 COMP.     WOODSIDE ENERGY LTD.          :COMPANY                                          
 WELL.     TOROSA-1                      :WELL                                             
 FLD .     TOROSA                        :FIELD                                            
 LOC .                                   :LOCATION
 PROV.     AUSTRALIA                     :PROVINCE                                         
 SRVC.     READ WELL SERVICES            :SERVICE COMPANY
 DATE.     24/08 2007                    :LOG DATE
 UWI .                                   :UNIQUE WELL ID
~CURVE INFORMATION
#MNEM.UNIT                                DESCRIPTION
#--------- ------------------------------ -------------------------------
MD        .M                             :1 MEASURED DEPTH FROM RKB                                                       
TVD       .M                             :2 TRUE VERTICAL DEPTH FROM MSL                                                  
TIME      .MS                            :3 TWO-WAY TRAVEL TIME FROM MSL, DERIVED FROM CALIBRATED SONIC LOG               
DT        .US/F                          :4 UNCALIBRATED SONIC LOG. COMPUTED FROM CHECK SHOTS ABOVE 2875.3 M MD RKB.      
DTC_CS    .US/F                          :5 CHECK SHOT CALIBRATED SONIC LOG                                               
RHO_CS    .G/CC                          :6 DENSITY LOG                                                                   
VEL_CS    .M/S                           :7 CHECK SHOT CALIBRATED VELOCITY LOG                                            
AIMP_CS   .MSKM                          :8 ACOUSTIC IMPEDANCE LOG (M/S*KG/CUBICM)                                        
# LOG CURVES
~A MD         TVD          TIME         DT           DTC_CS       RHO_CS       VEL_CS       AIMP_CS    
# ...
    2489.6700     2468.5199     1908.2595       98.0552       98.0552        1.8000     3108.4923  5595286.1529
    2489.8224     2468.6722     1908.3575       98.0552       98.0552        1.8000     3108.4923  5595286.1529
    2489.9748     2468.8246     1908.4557       98.0552       98.0552        1.8000     3108.4923  5595286.1529
    2490.1272     2468.9772     1908.5537       98.0552       98.0552        1.8000     3108.4923  5595286.1529
    2490.2796     2469.1295     1908.6517       98.0552       98.0552        1.8000     3108.4923  5595286.1529
    2490.4320     2469.2819     1908.7498       98.0552       98.0552        1.8000     3108.4923  5595286.1529
    2490.5844     2469.4342     1908.8478       98.0552       98.0552        1.8000     3108.4923  5595286.1529
    2490.7368     2469.5865     1908.9459       98.0552       98.0552        1.8000     3108.4923  5595286.1529
    2490.8892     2469.7391     1909.0441       98.0552       98.0552        1.8000     3108.4923  5595286.1529
    2491.0416     2469.8915     1909.1420       98.0552       98.0552        1.8000     3108.4923  5595286.1529
    2491.1940     2470.0438     1909.2400       98.0552       98.0552        1.8000     3108.4923  5595286.1529
    2491.3464     2470.1962     1909.3381       98.0552       98.0552        1.8000     3108.4923  5595286.1529
    2491.4988     2470.3488     1909.4363       98.0552       98.0552        1.8000     3108.4923  5595286.1529
    2491.6512     2470.5011     1909.5342       98.0552       98.0552        1.8000     3108.4923  5595286.1529
    2491.8036     2470.6534     1909.6322       98.0552       98.0552        1.8000     3108.4923  5595286.1529
    2491.9560     2470.8058     1909.7303       98.0552       98.0552        1.8000     3108.4923  5595286.1529
    2492.1084     2470.9584     1909.8284       98.0552       98.0552        1.8000     3108.4923  5595286.1529
    2492.2608     2471.1107     1909.9265       98.0552       98.0552        1.8000     3108.4923  5595286.1529
    2492.4132     2471.2631     1910.0245       98.0552       98.0552        1.8000     3108.4923  5595286.1529
    2492.5656     2471.4154     1910.1226       98.0552       98.0552        1.8000     3108.4923  5595286.1529
    2492.7180     2471.5678     1910.2206       98.0552       98.0552        1.8000     3108.4923  5595286.1529
    2492.8704     2471.7203     1910.3187       98.0552       98.0552        1.8000     3108.4923  5595286.1529
    2493.0228     2471.8727     1910.4167       98.0552       98.0552        1.8000     3108.4923  5595286.1529
    2493.1752     2472.0250     1910.5146       98.0552       98.0552        1.8000     3108.4923  5595286.1529
    2493.3276     2472.1774     1910.6128       98.0552       98.0552        1.8000     3108.4923  5595286.1529
    2493.4800     2472.3300     1910.7109       98.0552       98.0552        1.8000     3108.4923  5595286.1529
    2493.6324     2472.4823     1910.8090       98.0552       98.0552        1.8000     3108.4923  5595286.1529
    2493.7848     2472.6346     1910.9070       98.0552       98.0552        1.8000     3108.4923  5595286.1529
    2493.9372     2472.7870     1911.0050       98.0552       98.0552        1.8000     3108.4923  5595286.1529
    2494.0896     2472.9393     1911.1030       98.0552       98.0552        1.8000     3108.4923  5595286.1529
    2494.2420     2473.0919     1911.2012       98.0552       98.0552        1.8000     3108.4923  5595286.1529
    2494.3944     2473.2443     1911.2992       98.0552       98.0552        1.8000     3108.4923  5595286.1529
    2494.5468     2473.3966     1911.3972       98.0552       98.0552        1.8000     3108.4923  5595286.1529
    2494.6992     2473.5490     1911.4954       98.0552       98.0552        1.8000     3108.4923  5595286.1529
    2494.8516     2473.7015     1911.5934       98.0552       98.0552        1.8000     3108.4923  5595286.1529
    2495.0040     2473.8539     1911.6914       98.0552       98.0552        1.8000     3108.4923  5595286.1529
    2495.1564     2474.0062     1911.7894       98.0552       98.0552        1.8000     3108.4923  5595286.1529
    2495.3088     2474.1586     1911.8875       98.0552       98.0552        1.8000     3108.4923  5595286.1529
    2495.4612     2474.3112     1911.9856       98.0552       98.0552        1.8000     3108.4923  5595286.1529
    2495.6136     2474.4635     1912.0836       98.0552       98.0552        1.8000     3108.4923  5595286.1529
    2495.7660     2474.6158     1912.1816       98.0552       98.0552        1.8000     3108.4923  5595286.1529
    2495.9184     2474.7682     1912.2797       98.0552       98.0552        1.8000     3108.4923  5595286.1529
    2496.0708     2474.9205     1912.3778       98.0552       98.0552        1.8000     3108.4923  5595286.1529
    2496.2232     2475.0731     1912.4758       98.0552       98.0552        1.8000     3108.4923  5595286.1529
    2496.3756     2475.2255     1912.5740       98.0552       98.0552        1.8000     3108.4923  5595286.1529
    2496.5280     2475.3778     1912.6719       98.0552       98.0552        1.8000     3108.4923  5595286.1529
    2496.6804     2475.5302     1912.7700       98.0552       98.0552        1.8000     3108.4923  5595286.1529
    2496.8328     2475.6827     1912.8682       98.0552       98.0552        1.8000     3108.4923  5595286.1529
    2496.9852     2475.8351     1912.9662       98.0552       98.0552        1.8000     3108.4923  5595286.1529
    2497.1376     2475.9874     1913.0641       98.0552       98.0552        1.8000     3108.4923  5595286.1529
    2497.2900     2476.1398     1913.1622       98.0552       98.0552        1.8000     3108.4923  5595286.1529
    2497.4424     2476.2924     1913.2604       98.0552       98.0552        1.8000     3108.4923  5595286.1529
    2497.5948     2476.4447     1913.3583       98.0552       98.0552        1.8000     3108.4923  5595286.1529
    2497.7472     2476.5970     1913.4564       98.0552       98.0552        1.8000     3108.4923  5595286.1529
    2497.8996     2476.7494     1913.5544       98.0552       98.0552        1.8000     3108.4923  5595286.1529
    2498.0520     2476.9017     1913.6525       98.0552       98.0552        1.8000     3108.4923  5595286.1529
    2498.2044     2477.0543     1913.7506       98.0552       98.0552        1.8000     3108.4923  5595286.1529
    2498.3568     2477.2067     1913.8486       98.0552       98.0552        1.8000     3108.4923  5595286.1529
    2498.5092     2477.3590     1913.9467       98.0552       98.0552        1.8000     3108.4923  5595286.1529
    2498.6616     2477.5114     1914.0447       98.0552       98.0552        1.8000     3108.4923  5595286.1529
    2498.8140     2477.6639     1914.1428       98.0552       98.0552        1.8000     3108.4923  5595286.1529
    2498.9664     2477.8163     1914.2408       98.0552       98.0552        1.8000     3108.4923  5595286.1529
    2499.1188     2477.9686     1914.3389       98.0552       98.0552        1.8000     3108.4923  5595286.1529
    2499.2712     2478.1210     1914.4369       98.0552       98.0552        1.8000     3108.4923  5595286.1529
    2499.4236     2478.2736     1914.5350       98.0552       98.0552        1.8000     3108.4923  5595286.1529
    2499.5760     2478.4259     1914.6331       98.0552       98.0552        1.8000     3108.4923  5595286.1529
    2499.7284     2478.5782     1914.7311       98.0552       98.0552        1.8000     3108.4923  5595286.1529
    2499.8808     2478.7306     1914.8291       98.0552       98.0552        1.8000     3108.4923  5595286.1529
    2500.0332     2478.8829     1914.9271       98.0552       98.0552        1.8000     3108.4923  5595286.1529
    2500.1856     2479.0355     1915.0253       98.0552       98.0552        1.8000     3108.4923  5595286.1529
    2500.3380     2479.1879     1915.1233       98.0552       98.0552        1.8000     3108.4923  5595286.1529
    2500.4904     2479.3402     1915.2213       98.0552       98.0552        1.8000     3108.4923  5595286.1529
