~VERSION INFORMATION
VERS.                                   2:CWLS LOG ASCII STANDARD - VERSION 2.0
WRAP.                                  NO:ONE LINE PER DEPTH STEP
~WELL INFORMATION
#MNEM.UNIT              DATA              DESCRIPTION
#--------- ------------------------------ -------------------------------
 STRT.M                           20.7900:START DEPTH
 STOP.M                         4665.7896:STOP DEPTH
 STEP.M                            0.1524:STEP
 NULL.                          -999.2500:NULL VALUE
 COMP.     WOODSIDE ENERGY LTD.          :COMPANY                                          
 WELL.     TOROSA-1                      :WELL                                             
 FLD .     TOROSA                        :FIELD                                            
 LOC .                                   :LOCATION
 PROV.     AUSTRALIA                     :PROVINCE                                         
 SRVC.     READ WELL SERVICES            :SERVICE COMPANY
 DATE.     24/08 2007                    :LOG DATE
 UWI .                                   :UNIQUE WELL ID
~CURVE INFORMATION
#MNEM.UNIT                                DESCRIPTION
#--------- ------------------------------ -------------------------------
MD        .M                             :1 MEASURED DEPTH FROM RKB                                                       
TVD       .M                             :2 TRUE VERTICAL DEPTH FROM MSL                                                  
TIME      .MS                            :3 TWO-WAY TRAVEL TIME FROM MSL, DERIVED FROM CALIBRATED SONIC LOG               
DT        .US/F                          :4 UNCALIBRATED SONIC LOG. COMPUTED FROM CHECK SHOTS ABOVE 2875.3 M MD RKB.      
DTC_CS    .US/F                          :5 CHECK SHOT CALIBRATED SONIC LOG                                               
RHO_CS    .G/CC                          :6 DENSITY LOG                                                                   
VEL_CS    .M/S                           :7 CHECK SHOT CALIBRATED VELOCITY LOG                                            
AIMP_CS   .MSKM                          :8 ACOUSTIC IMPEDANCE LOG (M/S*KG/CUBICM)                                        
# LOG CURVES
~A MD         TVD          TIME         DT           DTC_CS       RHO_CS       VEL_CS       AIMP_CS    
# ...
    4036.8348     4015.2411     2699.3662       99.8269      100.4992        2.4776     3032.8964  7514408.7954
    4036.9872     4015.3932     2699.4666       99.9747      100.6470        2.5634     3028.4428  7763052.6080
    4037.1396     4015.5453     2699.5671      100.0000      100.6723        2.5517     3027.6823  7725586.8111
    4037.2920     4015.6979     2699.6680      100.0000      100.6723        2.5394     3027.6813  7688528.4937
    4037.4444     4015.8500     2699.7683      100.0000      100.6723        2.5349     3027.6813  7674989.6786
    4037.5968     4016.0023     2699.8689       99.9875      100.6598        2.5280     3028.0577  7654796.3111
    4037.7492     4016.1544     2699.9692       99.8131      100.4854        2.5231     3033.3142  7653357.2586
    4037.9016     4016.3065     2700.0696       99.3513      100.0236        2.5290     3047.3181  7706724.6335
    4038.0540     4016.4591     2700.1692       98.8361       99.5084        2.5270     3063.0957  7740444.4598
    4038.2064     4016.6112     2700.2683       98.4976       99.1700        2.5270     3073.5488  7766829.0162
    4038.3588     4016.7633     2700.3674       98.3669       99.0392        2.5402     3077.6076  7817844.5863
    4038.5112     4016.9157     2700.4663       98.3637       99.0360        2.5448     3077.7054  7832108.3413
    4038.6636     4017.0680     2700.5654       98.4147       99.0871        2.5364     3076.1203  7802255.7303
    4038.8160     4017.2201     2700.6643       98.4373       99.1096        2.5367     3075.4202  7801403.8778
    4038.9684     4017.3724     2700.7632       98.3669       99.0393        2.5391     3077.6051  7814227.7145
    4039.1208     4017.5245     2700.8623       98.3679       99.0403        2.5357     3077.5737  7803890.3359
    4039.2732     4017.6769     2700.9612       98.4220       99.0943        2.5305     3075.8958  7783549.4411
    4039.4256     4017.8292     2701.0601       98.4429       99.1152        2.5295     3075.2456  7778683.3605
    4039.5780     4017.9813     2701.1589       98.3835       99.0558        2.5352     3077.0901  7800969.6853
    4039.7304     4018.1334     2701.2581       98.4473       99.1196        2.5382     3075.1094  7805221.3911
    4039.8828     4018.2858     2701.3572       98.5496       99.2219        2.5356     3071.9388  7789301.5535
    4040.0352     4018.4381     2701.4565       98.6756       99.3479        2.5289     3068.0441  7758685.0153
    4040.1876     4018.5905     2701.5557       98.9008       99.5731        2.5131     3061.1051  7692744.8721
    4040.3400     4018.7426     2701.6553       99.2131       99.8855        2.5094     3051.5323  7657392.3706
    4040.4924     4018.8947     2701.7554       99.6657      100.3381        2.5278     3037.7679  7678766.0467
    4040.6448     4019.0472     2701.8557       99.9673      100.6397        2.5361     3028.6639  7680983.9313
    4040.7972     4019.1993     2701.9563      100.0000      100.6723        2.5154     3027.6813  7615965.1040
    4040.9496     4019.3514     2702.0569      100.0000      100.6723        2.4177     3027.6821  7320105.2443
    4041.1020     4019.5038     2702.1575       99.9919      100.6642        2.4099     3027.9265  7297049.0687
    4041.2544     4019.6561     2702.2581       99.8861      100.5584        2.5430     3031.1123  7708006.7299
    4041.4068     4019.8082     2702.3584       99.8525      100.5248        2.5454     3032.1238  7717972.0852
    4041.5592     4019.9606     2702.4590      100.0067      100.6790        2.5368     3027.4807  7680052.7873
    4041.7116     4020.1127     2702.5596      100.0933      100.7656        2.5387     3024.8775  7679347.9354
    4041.8640     4020.2648     2702.6602      100.2018      100.8741        2.5301     3021.6237  7644963.5420
    4042.0164     4020.4174     2702.7607      100.0243      100.6966        2.4770     3026.9519  7497633.5504
    4042.1688     4020.5695     2702.8611       99.6055      100.2778        2.4726     3039.5918  7515827.1360
    4042.3212     4020.7216     2702.9612       99.3977      100.0700        2.5408     3045.9038  7739050.0635
    4042.4736     4020.8739     2703.0613       99.3636      100.0360        2.5483     3046.9412  7764498.4853
    4042.6260     4021.0262     2703.1611       99.3667      100.0390        2.5413     3046.8474  7742863.3384
    4042.7784     4021.1783     2703.2610       99.4004      100.0727        2.5351     3045.8224  7721428.3031
    4042.9308     4021.3307     2703.3611       99.4467      100.1190        2.5284     3044.4130  7697537.4447
    4043.0832     4021.4828     2703.4612       99.4196      100.0919        2.5251     3045.2374  7689566.3976
    4043.2356     4021.6354     2703.5613       99.1596       99.8320        2.5257     3053.1676  7711271.1800
    4043.3880     4021.7875     2703.6606       98.7357       99.4080        2.5218     3066.1874  7732217.8182
    4043.5404     4021.9396     2703.7598       98.4760       99.1483        2.5159     3074.2195  7734538.0743
    4043.6928     4022.0919     2703.8586       98.2880       98.9603        2.5115     3080.0614  7735553.1102
    4043.8452     4022.2440     2703.9573       98.1174       98.7897        2.5172     3085.3791  7766443.6725
    4043.9976     4022.3964     2704.0562       98.0217       98.6940        2.5256     3088.3717  7800046.8705
    4044.1500     4022.5487     2704.1548       98.0602       98.7326        2.5273     3087.1647  7802052.7799
    4044.3024     4022.7008     2704.2532       98.0770       98.7493        2.5293     3086.6427  7807022.0950
    4044.4548     4022.8529     2704.3518       98.0057       98.6780        2.5412     3088.8721  7849297.9539
    4044.6072     4023.0055     2704.4504       98.0000       98.6723        2.5486     3089.0493  7872632.6945
    4044.7596     4023.1576     2704.5488       98.0000       98.6723        2.5504     3089.0498  7878421.8037
    4044.9120     4023.3097     2704.6475       97.9999       98.6723        2.5489     3089.0517  7873760.4434
    4045.0644     4023.4620     2704.7461       97.9753       98.6476        2.5468     3089.8241  7869131.5587
    4045.2168     4023.6144     2704.8447       97.8170       98.4893        2.5554     3094.7901  7908527.8764
    4045.3692     4023.7665     2704.9429       97.4925       98.1648        2.5571     3105.0190  7939722.8299
    4045.5216     4023.9188     2705.0405       96.8347       97.5070        2.5502     3125.9682  7971743.2261
    4045.6740     4024.0709     2705.1375       95.8517       96.5240        2.5484     3157.8017  8047316.5466
    4045.8264     4024.2233     2705.2336       95.0096       95.6819        2.5469     3185.5954  8113250.8863
    4045.9788     4024.3756     2705.3289       94.5499       95.2222        2.5561     3200.9718  8182094.9850
    4046.1312     4024.5277     2705.4241       94.8596       95.5320        2.6058     3190.5939  8314203.8354
    4046.2836     4024.6801     2705.5200       95.5749       96.2472        2.6954     3166.8834  8535890.8309
    4046.4360     4024.8322     2705.6165       96.3746       97.0469        2.7025     3140.7867  8487984.2481
    4046.5884     4024.9845     2705.7139       97.3843       98.0566        2.6239     3108.4465  8156395.4999
    4046.7408     4025.1368     2705.8125       98.3277       99.0000        2.5722     3078.8248  7919226.9227
    4046.8932     4025.2889     2705.9114       98.7325       99.4048        2.5450     3066.2861  7803618.3197
    4047.0456     4025.4410     2706.0107       98.9215       99.5938        2.5410     3060.4694  7776732.2641
    4047.1980     4025.5936     2706.1106       99.2268       99.8991        2.5471     3051.1166  7771541.9671
    4047.3504     4025.7457     2706.2104       99.3295      100.0019        2.5429     3047.9802  7750730.5117
    4047.5028     4025.8978     2706.3101       99.0328       99.7051        2.5344     3057.0530  7747737.3844
    4047.6552     4026.0502     2706.4094       98.6835       99.3558        2.5317     3067.8000  7766724.7432
