~VERSION INFORMATION
VERS.                                   2:CWLS LOG ASCII STANDARD - VERSION 2.0
WRAP.                                  NO:ONE LINE PER DEPTH STEP
~WELL INFORMATION
#MNEM.UNIT              DATA              DESCRIPTION
#--------- ------------------------------ -------------------------------
 STRT.M                           20.7900:START DEPTH
 STOP.M                         4665.7896:STOP DEPTH
 STEP.M                            0.1524:STEP
 NULL.                          -999.2500:NULL VALUE
 COMP.     WOODSIDE ENERGY LTD.          :COMPANY                                          
 WELL.     TOROSA-1                      :WELL                                             
 FLD .     TOROSA                        :FIELD                                            
 LOC .                                   :LOCATION
 PROV.     AUSTRALIA                     :PROVINCE                                         
 SRVC.     READ WELL SERVICES            :SERVICE COMPANY
 DATE.     24/08 2007                    :LOG DATE
 UWI .                                   :UNIQUE WELL ID
~CURVE INFORMATION
#MNEM.UNIT                                DESCRIPTION
#--------- ------------------------------ -------------------------------
MD        .M                             :1 MEASURED DEPTH FROM RKB                                                       
TVD       .M                             :2 TRUE VERTICAL DEPTH FROM MSL                                                  
TIME      .MS                            :3 TWO-WAY TRAVEL TIME FROM MSL, DERIVED FROM CALIBRATED SONIC LOG               
DT        .US/F                          :4 UNCALIBRATED SONIC LOG. COMPUTED FROM CHECK SHOTS ABOVE 2875.3 M MD RKB.      
DTC_CS    .US/F                          :5 CHECK SHOT CALIBRATED SONIC LOG                                               
RHO_CS    .G/CC                          :6 DENSITY LOG                                                                   
VEL_CS    .M/S                           :7 CHECK SHOT CALIBRATED VELOCITY LOG                                            
AIMP_CS   .MSKM                          :8 ACOUSTIC IMPEDANCE LOG (M/S*KG/CUBICM)                                        
# LOG CURVES
~A MD         TVD          TIME         DT           DTC_CS       RHO_CS       VEL_CS       AIMP_CS    
      20.7900        0.0000        0.0000      200.0024      200.0024        1.0000     1524.0000  1524000.0057
      20.9424        0.1524        0.2000      200.0024      200.0024        1.0000     1524.0000  1524000.0057
      21.0948        0.3048        0.4000      200.0024      200.0024        1.0000     1524.0000  1524000.0057
      21.2472        0.4572        0.6000      200.0024      200.0024        1.0000     1524.0000  1524000.0057
      21.3996        0.6096        0.8000      200.0024      200.0024        1.0000     1524.0000  1524000.0057
      21.5520        0.7620        1.0000      200.0024      200.0024        1.0000     1524.0000  1524000.0057
      21.7044        0.9144        1.2000      200.0024      200.0024        1.0000     1524.0000  1524000.0057
      21.8568        1.0668        1.4000      200.0024      200.0024        1.0000     1524.0000  1524000.0057
      22.0092        1.2192        1.6000      200.0024      200.0024        1.0000     1524.0000  1524000.0057
      22.1616        1.3716        1.8000      200.0024      200.0024        1.0000     1524.0000  1524000.0057
      22.3140        1.5240        2.0000      200.0024      200.0024        1.0000     1524.0000  1524000.0057
      22.4664        1.6764        2.2000      200.0024      200.0024        1.0000     1524.0000  1524000.0057
      22.6188        1.8288        2.4000      200.0024      200.0024        1.0000     1524.0000  1524000.0057
      22.7712        1.9812        2.6000      200.0024      200.0024        1.0000     1524.0000  1524000.0057
      22.9236        2.1336        2.8000      200.0024      200.0024        1.0000     1524.0000  1524000.0057
      23.0760        2.2860        3.0000      200.0024      200.0024        1.0000     1524.0000  1524000.0057
      23.2284        2.4384        3.2000      200.0024      200.0024        1.0000     1524.0000  1524000.0057
      23.3808        2.5908        3.4000      200.0024      200.0024        1.0000     1524.0000  1524000.0057
      23.5332        2.7432        3.6000      200.0024      200.0024        1.0000     1524.0000  1524000.0057
      23.6856        2.8956        3.8000      200.0024      200.0024        1.0000     1524.0000  1524000.0057
      23.8380        3.0480        4.0000      200.0024      200.0024        1.0000     1524.0000  1524000.0057
      23.9904        3.2004        4.2000      200.0024      200.0024        1.0000     1524.0000  1524000.0057
      24.1428        3.3528        4.4000      200.0024      200.0024        1.0000     1524.0000  1524000.0057
      24.2952        3.5052        4.6000      200.0024      200.0024        1.0000     1524.0000  1524000.0057
      24.4476        3.6576        4.8000      200.0024      200.0024        1.0000     1524.0000  1524000.0057
      24.6000        3.8100        5.0000      200.0024      200.0024        1.0000     1524.0000  1524000.0057
      24.7524        3.9624        5.2000      200.0024      200.0024        1.0000     1524.0000  1524000.0057
      24.9048        4.1148        5.4000      200.0024      200.0024        1.0000     1524.0000  1524000.0057
      25.0572        4.2672        5.6000      200.0024      200.0024        1.0000     1524.0000  1524000.0057
      25.2096        4.4196        5.8000      200.0024      200.0024        1.0000     1524.0000  1524000.0057
      25.3620        4.5720        6.0000      200.0024      200.0024        1.0000     1524.0000  1524000.0057
      25.5144        4.7244        6.2000      200.0024      200.0024        1.0000     1524.0000  1524000.0057
      25.6668        4.8768        6.4000      200.0024      200.0024        1.0000     1524.0000  1524000.0057
      25.8192        5.0292        6.6000      200.0024      200.0024        1.0000     1524.0000  1524000.0057
      25.9716        5.1816        6.8000      200.0024      200.0024        1.0000     1524.0000  1524000.0057
      26.1240        5.3340        7.0000      200.0024      200.0024        1.0000     1524.0000  1524000.0057
      26.2764        5.4864        7.2000      200.0024      200.0024        1.0000     1524.0000  1524000.0057
      26.4288        5.6388        7.4000      200.0024      200.0024        1.0000     1524.0000  1524000.0057
      26.5812        5.7912        7.6000      200.0024      200.0024        1.0000     1524.0000  1524000.0057
      26.7336        5.9436        7.8000      200.0024      200.0024        1.0000     1524.0000  1524000.0057
      26.8860        6.0960        8.0000      200.0024      200.0024        1.0000     1524.0000  1524000.0057
      27.0384        6.2484        8.2000      200.0024      200.0024        1.0000     1524.0000  1524000.0057
      27.1908        6.4008        8.4000      200.0024      200.0024        1.0000     1524.0000  1524000.0057
      27.3432        6.5532        8.6000      200.0024      200.0024        1.0000     1524.0000  1524000.0057
      27.4956        6.7056        8.8000      200.0024      200.0024        1.0000     1524.0000  1524000.0057
      27.6480        6.8580        9.0000      200.0024      200.0024        1.0000     1524.0000  1524000.0057
      27.8004        7.0104        9.2000      200.0024      200.0024        1.0000     1524.0000  1524000.0057
      27.9528        7.1628        9.4000      200.0024      200.0024        1.0000     1524.0000  1524000.0057
      28.1052        7.3152        9.6000      200.0024      200.0024        1.0000     1524.0000  1524000.0057
      28.2576        7.4676        9.8000      200.0024      200.0024        1.0000     1524.0000  1524000.0057
      28.4100        7.6200       10.0000      200.0024      200.0024        1.0000     1524.0000  1524000.0057
      28.5624        7.7724       10.2000      200.0024      200.0024        1.0000     1524.0000  1524000.0057
      28.7148        7.9248       10.4000      200.0024      200.0024        1.0000     1524.0000  1524000.0057
      28.8672        8.0772       10.6000      200.0024      200.0024        1.0000     1524.0000  1524000.0057
      29.0196        8.2296       10.8000      200.0024      200.0024        1.0000     1524.0000  1524000.0057
      29.1720        8.3820       11.0000      200.0024      200.0024        1.0000     1524.0000  1524000.0057
      29.3244        8.5344       11.2000      200.0024      200.0024        1.0000     1524.0000  1524000.0057
      29.4768        8.6868       11.4000      200.0024      200.0024        1.0000     1524.0000  1524000.0057
      29.6292        8.8392       11.6000      200.0024      200.0024        1.0000     1524.0000  1524000.0057
      29.7816        8.9916       11.8000      200.0024      200.0024        1.0000     1524.0000  1524000.0057
      29.9340        9.1440       12.0000      200.0024      200.0024        1.0000     1524.0000  1524000.0057
      30.0864        9.2964       12.2000      200.0024      200.0024        1.0000     1524.0000  1524000.0057
      30.2388        9.4488       12.4000      200.0024      200.0024        1.0000     1524.0000  1524000.0057
      30.3912        9.6012       12.6000      200.0024      200.0024        1.0000     1524.0000  1524000.0057
      30.5436        9.7536       12.8000      200.0024      200.0024        1.0000     1524.0000  1524000.0057
      30.6960        9.9060       13.0000      200.0024      200.0024        1.0000     1524.0000  1524000.0057
      30.8484       10.0584       13.2000      200.0024      200.0024        1.0000     1524.0000  1524000.0057
      31.0008       10.2108       13.4000      200.0024      200.0024        1.0000     1524.0000  1524000.0057
      31.1532       10.3632       13.6000      200.0024      200.0024        1.0000     1524.0000  1524000.0057
      31.3056       10.5156       13.8000      200.0024      200.0024        1.0000     1524.0000  1524000.0057
      31.4580       10.6680       14.0000      200.0024      200.0024        1.0000     1524.0000  1524000.0057
      31.6104       10.8204       14.2000      200.0024      200.0024        1.0000     1524.0000  1524000.0057
