~VERSION INFORMATION
VERS.                                   2:CWLS LOG ASCII STANDARD - VERSION 2.0
WRAP.                                  NO:ONE LINE PER DEPTH STEP
~WELL INFORMATION
#MNEM.UNIT              DATA              DESCRIPTION
#--------- ------------------------------ -------------------------------
 STRT.M                           20.7900:START DEPTH
 STOP.M                         4665.7896:STOP DEPTH
 STEP.M                            0.1524:STEP
 NULL.                          -999.2500:NULL VALUE
 COMP.     WOODSIDE ENERGY LTD.          :COMPANY                                          
 WELL.     TOROSA-1                      :WELL                                             
 FLD .     TOROSA                        :FIELD                                            
 LOC .                                   :LOCATION
 PROV.     AUSTRALIA                     :PROVINCE                                         
 SRVC.     READ WELL SERVICES            :SERVICE COMPANY
 DATE.     24/08 2007                    :LOG DATE
 UWI .                                   :UNIQUE WELL ID
~CURVE INFORMATION
#MNEM.UNIT                                DESCRIPTION
#--------- ------------------------------ -------------------------------
MD        .M                             :1 MEASURED DEPTH FROM RKB                                                       
TVD       .M                             :2 TRUE VERTICAL DEPTH FROM MSL                                                  
TIME      .MS                            :3 TWO-WAY TRAVEL TIME FROM MSL, DERIVED FROM CALIBRATED SONIC LOG               
DT        .US/F                          :4 UNCALIBRATED SONIC LOG. COMPUTED FROM CHECK SHOTS ABOVE 2875.3 M MD RKB.      
DTC_CS    .US/F                          :5 CHECK SHOT CALIBRATED SONIC LOG                                               
RHO_CS    .G/CC                          :6 DENSITY LOG                                                                   
VEL_CS    .M/S                           :7 CHECK SHOT CALIBRATED VELOCITY LOG                                            
AIMP_CS   .MSKM                          :8 ACOUSTIC IMPEDANCE LOG (M/S*KG/CUBICM)                                        
# LOG CURVES
~A MD         TVD          TIME         DT           DTC_CS       RHO_CS       VEL_CS       AIMP_CS    
# ...
     635.2668      614.4768      715.3706       98.0552       98.0552        1.8000     3108.4923  5595286.1529
     635.4192      614.6292      715.4687       98.0552       98.0552        1.8000     3108.4923  5595286.1529
     635.5716      614.7816      715.5667       98.0552       98.0552        1.8000     3108.4923  5595286.1529
     635.7240      614.9340      715.6647       98.0552       98.0552        1.8000     3108.4923  5595286.1529
     635.8764      615.0864      715.7628       98.0552       98.0552        1.8000     3108.4923  5595286.1529
     636.0288      615.2388      715.8608       98.0552       98.0552        1.8000     3108.4923  5595286.1529
     636.1812      615.3912      715.9589       98.0552       98.0552        1.8000     3108.4923  5595286.1529
     636.3336      615.5436      716.0570       98.0552       98.0552        1.8000     3108.4923  5595286.1529
     636.4860      615.6960      716.1551       98.0552       98.0552        1.8000     3108.4923  5595286.1529
     636.6384      615.8485      716.2531       98.0552       98.0552        1.8000     3108.4923  5595286.1529
     636.7908      616.0008      716.3511       98.0552       98.0552        1.8000     3108.4923  5595286.1529
     636.9432      616.1532      716.4492       98.0552       98.0552        1.8000     3108.4923  5595286.1529
     637.0956      616.3056      716.5472       98.0552       98.0552        1.8000     3108.4923  5595286.1529
     637.2480      616.4580      716.6453       98.0552       98.0552        1.8000     3108.4923  5595286.1529
     637.4004      616.6104      716.7433       98.0552       98.0552        1.8000     3108.4923  5595286.1529
     637.5528      616.7628      716.8414       98.0552       98.0552        1.8000     3108.4923  5595286.1529
     637.7052      616.9152      716.9395       98.0552       98.0552        1.8000     3108.4923  5595286.1529
     637.8576      617.0676      717.0375       98.0552       98.0552        1.8000     3108.4923  5595286.1529
     638.0100      617.2200      717.1356       98.0552       98.0552        1.8000     3108.4923  5595286.1529
     638.1624      617.3724      717.2336       98.0552       98.0552        1.8000     3108.4923  5595286.1529
     638.3148      617.5248      717.3317       98.0552       98.0552        1.8000     3108.4923  5595286.1529
     638.4672      617.6772      717.4297       98.0552       98.0552        1.8000     3108.4923  5595286.1529
     638.6196      617.8297      717.5278       98.0552       98.0552        1.8000     3108.4923  5595286.1529
     638.7720      617.9820      717.6258       98.0552       98.0552        1.8000     3108.4923  5595286.1529
     638.9244      618.1344      717.7239       98.0552       98.0552        1.8000     3108.4923  5595286.1529
     639.0768      618.2868      717.8219       98.0552       98.0552        1.8000     3108.4923  5595286.1529
     639.2292      618.4392      717.9200       98.0552       98.0552        1.8000     3108.4923  5595286.1529
     639.3816      618.5916      718.0181       98.0552       98.0552        1.8000     3108.4923  5595286.1529
     639.5340      618.7440      718.1161       98.0552       98.0552        1.8000     3108.4923  5595286.1529
     639.6864      618.8964      718.2142       98.0552       98.0552        1.8000     3108.4923  5595286.1529
     639.8388      619.0488      718.3122       98.0552       98.0552        1.8000     3108.4923  5595286.1529
     639.9912      619.2012      718.4103       98.0552       98.0552        1.8000     3108.4923  5595286.1529
     640.1436      619.3536      718.5083       98.0552       98.0552        1.8000     3108.4923  5595286.1529
     640.2960      619.5060      718.6064       98.0552       98.0552        1.8000     3108.4923  5595286.1529
     640.4484      619.6584      718.7044       98.0552       98.0552        1.8000     3108.4923  5595286.1529
     640.6008      619.8108      718.8025       98.0552       98.0552        1.8000     3108.4923  5595286.1529
     640.7532      619.9632      718.9005       98.0552       98.0552        1.8000     3108.4923  5595286.1529
     640.9056      620.1156      718.9986       98.0552       98.0552        1.8000     3108.4923  5595286.1529
     641.0580      620.2680      719.0966       98.0552       98.0552        1.8000     3108.4923  5595286.1529
     641.2104      620.4204      719.1947       98.0552       98.0552        1.8000     3108.4923  5595286.1529
     641.3628      620.5728      719.2928       98.0552       98.0552        1.8000     3108.4923  5595286.1529
     641.5152      620.7252      719.3908       98.0552       98.0552        1.8000     3108.4923  5595286.1529
     641.6676      620.8776      719.4889       98.0552       98.0552        1.8000     3108.4923  5595286.1529
     641.8200      621.0300      719.5869       98.0552       98.0552        1.8000     3108.4923  5595286.1529
     641.9724      621.1824      719.6850       98.0552       98.0552        1.8000     3108.4923  5595286.1529
     642.1248      621.3348      719.7830       98.0552       98.0552        1.8000     3108.4923  5595286.1529
     642.2772      621.4872      719.8811       98.0552       98.0552        1.8000     3108.4923  5595286.1529
     642.4296      621.6397      719.9791       98.0552       98.0552        1.8000     3108.4923  5595286.1529
     642.5820      621.7920      720.0771       98.0552       98.0552        1.8000     3108.4923  5595286.1529
     642.7344      621.9444      720.1752       98.0552       98.0552        1.8000     3108.4923  5595286.1529
     642.8868      622.0968      720.2733       98.0552       98.0552        1.8000     3108.4923  5595286.1529
     643.0392      622.2492      720.3713       98.0552       98.0552        1.8000     3108.4923  5595286.1529
     643.1916      622.4016      720.4694       98.0552       98.0552        1.8000     3108.4923  5595286.1529
     643.3440      622.5540      720.5674       98.0552       98.0552        1.8000     3108.4923  5595286.1529
     643.4964      622.7064      720.6655       98.0552       98.0552        1.8000     3108.4923  5595286.1529
     643.6488      622.8588      720.7636       98.0552       98.0552        1.8000     3108.4923  5595286.1529
     643.8012      623.0112      720.8616       98.0552       98.0552        1.8000     3108.4923  5595286.1529
     643.9536      623.1636      720.9597       98.0552       98.0552        1.8000     3108.4923  5595286.1529
     644.1060      623.3160      721.0577       98.0552       98.0552        1.8000     3108.4923  5595286.1529
     644.2584      623.4684      721.1558       98.0552       98.0552        1.8000     3108.4923  5595286.1529
     644.4108      623.6209      721.2538       98.0552       98.0552        1.8000     3108.4923  5595286.1529
     644.5632      623.7732      721.3519       98.0552       98.0552        1.8000     3108.4923  5595286.1529
     644.7156      623.9256      721.4500       98.0552       98.0552        1.8000     3108.4923  5595286.1529
     644.8680      624.0780      721.5480       98.0552       98.0552        1.8000     3108.4923  5595286.1529
     645.0204      624.2304      721.6461       98.0552       98.0552        1.8000     3108.4923  5595286.1529
     645.1728      624.3828      721.7441       98.0552       98.0552        1.8000     3108.4923  5595286.1529
     645.3252      624.5352      721.8422       98.0552       98.0552        1.8000     3108.4923  5595286.1529
     645.4776      624.6876      721.9402       98.0552       98.0552        1.8000     3108.4923  5595286.1529
     645.6300      624.8400      722.0383       98.0552       98.0552        1.8000     3108.4923  5595286.1529
     645.7824      624.9924      722.1364       98.0552       98.0552        1.8000     3108.4923  5595286.1529
     645.9348      625.1448      722.2344       98.0552       98.0552        1.8000     3108.4923  5595286.1529
     646.0872      625.2972      722.3325       98.0552       98.0552        1.8000     3108.4923  5595286.1529
