~VERSION INFORMATION
VERS.                                   2:CWLS LOG ASCII STANDARD - VERSION 2.0
WRAP.                                  NO:ONE LINE PER DEPTH STEP
~WELL INFORMATION
#MNEM.UNIT              DATA              DESCRIPTION
#--------- ------------------------------ -------------------------------
 STRT.M                           20.7900:START DEPTH
 STOP.M                         4665.7896:STOP DEPTH
 STEP.M                            0.1524:STEP
 NULL.                          -999.2500:NULL VALUE
 COMP.     WOODSIDE ENERGY LTD.          :COMPANY                                          
 WELL.     TOROSA-1                      :WELL                                             
 FLD .     TOROSA                        :FIELD                                            
 LOC .                                   :LOCATION
 PROV.     AUSTRALIA                     :PROVINCE                                         
 SRVC.     READ WELL SERVICES            :SERVICE COMPANY
 DATE.     24/08 2007                    :LOG DATE
 UWI .                                   :UNIQUE WELL ID
~CURVE INFORMATION
#MNEM.UNIT                                DESCRIPTION
#--------- ------------------------------ -------------------------------
MD        .M                             :1 MEASURED DEPTH FROM RKB                                                       
TVD       .M                             :2 TRUE VERTICAL DEPTH FROM MSL                                                  
TIME      .MS                            :3 TWO-WAY TRAVEL TIME FROM MSL, DERIVED FROM CALIBRATED SONIC LOG               
DT        .US/F                          :4 UNCALIBRATED SONIC LOG. COMPUTED FROM CHECK SHOTS ABOVE 2875.3 M MD RKB.      
DTC_CS    .US/F                          :5 CHECK SHOT CALIBRATED SONIC LOG                                               
RHO_CS    .G/CC                          :6 DENSITY LOG                                                                   
VEL_CS    .M/S                           :7 CHECK SHOT CALIBRATED VELOCITY LOG                                            
AIMP_CS   .MSKM                          :8 ACOUSTIC IMPEDANCE LOG (M/S*KG/CUBICM)                                        
# LOG CURVES
~A MD         TVD          TIME         DT           DTC_CS       RHO_CS       VEL_CS       AIMP_CS    
# ...
    2796.9084     2775.7084     2105.9043       98.0552       98.0552        1.8000     3108.4923  5595286.1529
    2797.0608     2775.8610     2106.0024       98.0552       98.0552        1.8000     3108.4923  5595286.1529
    2797.2132     2776.0133     2106.1003       98.0552       98.0552        1.8000     3108.4923  5595286.1529
    2797.3656     2776.1657     2106.1985       98.0552       98.0552        1.8000     3108.4923  5595286.1529
    2797.5180     2776.3180     2106.2964       98.0552       98.0552        1.8000     3108.4923  5595286.1529
    2797.6704     2776.4703     2106.3945       98.0552       98.0552        1.8000     3108.4923  5595286.1529
    2797.8228     2776.6229     2106.4927       98.0552       98.0552        1.8000     3108.4923  5595286.1529
    2797.9752     2776.7753     2106.5906       98.0552       98.0552        1.8000     3108.4923  5595286.1529
    2798.1276     2776.9276     2106.6887       98.0552       98.0552        1.8000     3108.4923  5595286.1529
    2798.2800     2777.0800     2106.7866       98.0552       98.0552        1.8000     3108.4923  5595286.1529
    2798.4324     2777.2325     2106.8848       98.0552       98.0552        1.8000     3108.4923  5595286.1529
    2798.5848     2777.3849     2106.9829       98.0552       98.0552        1.8000     3108.4923  5595286.1529
    2798.7372     2777.5372     2107.0808       98.0552       98.0552        1.8000     3108.4923  5595286.1529
    2798.8896     2777.6896     2107.1790       98.0552       98.0552        1.8000     3108.4923  5595286.1529
    2799.0420     2777.8422     2107.2771       98.0552       98.0552        1.8000     3108.4923  5595286.1529
    2799.1944     2777.9945     2107.3750       98.0552       98.0552        1.8000     3108.4923  5595286.1529
    2799.3468     2778.1469     2107.4731       98.0552       98.0552        1.8000     3108.4923  5595286.1529
    2799.4992     2778.2992     2107.5713       98.0552       98.0552        1.8000     3108.4923  5595286.1529
    2799.6516     2778.4515     2107.6692       98.0552       98.0552        1.8000     3108.4923  5595286.1529
    2799.8040     2778.6041     2107.7673       98.0552       98.0552        1.8000     3108.4923  5595286.1529
    2799.9564     2778.7565     2107.8655       98.0552       98.0552        1.8000     3108.4923  5595286.1529
    2800.1088     2778.9088     2107.9634       98.0552       98.0552        1.8000     3108.4923  5595286.1529
    2800.2612     2779.0612     2108.0615       98.0552       98.0552        1.8000     3108.4923  5595286.1529
    2800.4136     2779.2137     2108.1597       98.0552       98.0552        1.8000     3108.4923  5595286.1529
    2800.5660     2779.3661     2108.2576       98.0552       98.0552        1.8000     3108.4923  5595286.1529
    2800.7184     2779.5184     2108.3557       98.0552       98.0552        1.8000     3108.4923  5595286.1529
    2800.8708     2779.6708     2108.4536       98.0552       98.0552        1.8000     3108.4923  5595286.1529
    2801.0232     2779.8234     2108.5518       98.0552       98.0552        1.8000     3108.4923  5595286.1529
    2801.1756     2779.9757     2108.6499       98.0552       98.0552        1.8000     3108.4923  5595286.1529
    2801.3280     2780.1281     2108.7478       98.0552       98.0552        1.8000     3108.4923  5595286.1529
    2801.4804     2780.2804     2108.8457       98.0552       98.0552        1.8000     3108.4923  5595286.1529
    2801.6328     2780.4327     2108.9438       98.0552       98.0552        1.8000     3108.4923  5595286.1529
    2801.7852     2780.5853     2109.0420       98.0552       98.0552        1.8000     3108.4923  5595286.1529
    2801.9376     2780.7377     2109.1401       98.0552       98.0552        1.8000     3108.4923  5595286.1529
    2802.0900     2780.8900     2109.2380       98.0552       98.0552        1.8000     3108.4923  5595286.1529
    2802.2424     2781.0424     2109.3362       98.0552       98.0552        1.8000     3108.4923  5595286.1529
    2802.3948     2781.1949     2109.4343       98.0552       98.0552        1.8000     3108.4923  5595286.1529
    2802.5472     2781.3473     2109.5322       98.0552       98.0552        1.8000     3108.4923  5595286.1529
    2802.6996     2781.4996     2109.6301       98.0552       98.0552        1.8000     3108.4923  5595286.1529
    2802.8520     2781.6520     2109.7283       98.0552       98.0552        1.8000     3108.4923  5595286.1529
    2803.0044     2781.8046     2109.8264       98.0552       98.0552        1.8000     3108.4923  5595286.1529
    2803.1568     2781.9569     2109.9243       98.0552       98.0552        1.8000     3108.4923  5595286.1529
    2803.3092     2782.1093     2110.0225       98.0552       98.0552        1.8000     3108.4923  5595286.1529
    2803.4616     2782.2616     2110.1206       98.0552       98.0552        1.8000     3108.4923  5595286.1529
    2803.6140     2782.4139     2110.2188       98.0552       98.0552        1.8000     3108.4923  5595286.1529
    2803.7664     2782.5665     2110.3167       98.0552       98.0552        1.8000     3108.4923  5595286.1529
    2803.9188     2782.7189     2110.4148       98.0552       98.0552        1.8000     3108.4923  5595286.1529
    2804.0712     2782.8712     2110.5129       98.0552       98.0552        1.8000     3108.4923  5595286.1529
    2804.2236     2783.0236     2110.6108       98.0552       98.0552        1.8000     3108.4923  5595286.1529
    2804.3760     2783.1761     2110.7090       98.0552       98.0552        1.8000     3108.4923  5595286.1529
    2804.5284     2783.3285     2110.8071       98.0552       98.0552        1.8000     3108.4923  5595286.1529
    2804.6808     2783.4808     2110.9050       98.0552       98.0552        1.8000     3108.4923  5595286.1529
    2804.8332     2783.6332     2111.0032       98.0552       98.0552        1.8000     3108.4923  5595286.1529
    2804.9856     2783.7858     2111.1013       98.0552       98.0552        1.8000     3108.4923  5595286.1529
    2805.1380     2783.9381     2111.1992       98.0552       98.0552        1.8000     3108.4923  5595286.1529
    2805.2904     2784.0905     2111.2974       98.0552       98.0552        1.8000     3108.4923  5595286.1529
    2805.4428     2784.2428     2111.3953       98.0552       98.0552        1.8000     3108.4923  5595286.1529
    2805.5952     2784.3951     2111.4934       98.0552       98.0552        1.8000     3108.4923  5595286.1529
    2805.7476     2784.5477     2111.5916       98.0552       98.0552        1.8000     3108.4923  5595286.1529
    2805.9000     2784.7001     2111.6895       98.0552       98.0552        1.8000     3108.4923  5595286.1529
    2806.0524     2784.8524     2111.7874       98.0552       98.0552        1.8000     3108.4923  5595286.1529
    2806.2048     2785.0048     2111.8855       98.0552       98.0552        1.8000     3108.4923  5595286.1529
    2806.3572     2785.1574     2111.9836       98.0552       98.0552        1.8000     3108.4923  5595286.1529
    2806.5096     2785.3097     2112.0815       98.0552       98.0552        1.8000     3108.4923  5595286.1529
    2806.6620     2785.4620     2112.1797       98.0552       98.0552        1.8000     3108.4923  5595286.1529
    2806.8144     2785.6144     2112.2778       98.0552       98.0552        1.8000     3108.4923  5595286.1529
    2806.9668     2785.7670     2112.3757       98.0552       98.0552        1.8000     3108.4923  5595286.1529
    2807.1192     2785.9193     2112.4739       98.0552       98.0552        1.8000     3108.4923  5595286.1529
    2807.2716     2786.0717     2112.5720       98.0552       98.0552        1.8000     3108.4923  5595286.1529
    2807.4240     2786.2240     2112.6702       98.0552       98.0552        1.8000     3108.4923  5595286.1529
    2807.5764     2786.3763     2112.7681       98.0552       98.0552        1.8000     3108.4923  5595286.1529
    2807.7288     2786.5289     2112.8662       98.0552       98.0552        1.8000     3108.4923  5595286.1529
