~VERSION INFORMATION
VERS.                                   2:CWLS LOG ASCII STANDARD - VERSION 2.0
WRAP.                                  NO:ONE LINE PER DEPTH STEP
~WELL INFORMATION
#MNEM.UNIT              DATA              DESCRIPTION
#--------- ------------------------------ -------------------------------
 STRT.M                           20.7900:START DEPTH
 STOP.M                         4665.7896:STOP DEPTH
 STEP.M                            0.1524:STEP
 NULL.                          -999.2500:NULL VALUE
 COMP.     WOODSIDE ENERGY LTD.          :COMPANY                                          
 WELL.     TOROSA-1                      :WELL                                             
 FLD .     TOROSA                        :FIELD                                            
 LOC .                                   :LOCATION
 PROV.     AUSTRALIA                     :PROVINCE                                         
 SRVC.     READ WELL SERVICES            :SERVICE COMPANY
 DATE.     24/08 2007                    :LOG DATE
 UWI .                                   :UNIQUE WELL ID
~CURVE INFORMATION
#MNEM.UNIT                                DESCRIPTION
#--------- ------------------------------ -------------------------------
MD        .M                             :1 MEASURED DEPTH FROM RKB                                                       
TVD       .M                             :2 TRUE VERTICAL DEPTH FROM MSL                                                  
TIME      .MS                            :3 TWO-WAY TRAVEL TIME FROM MSL, DERIVED FROM CALIBRATED SONIC LOG               
DT        .US/F                          :4 UNCALIBRATED SONIC LOG. COMPUTED FROM CHECK SHOTS ABOVE 2875.3 M MD RKB.      
DTC_CS    .US/F                          :5 CHECK SHOT CALIBRATED SONIC LOG                                               
RHO_CS    .G/CC                          :6 DENSITY LOG                                                                   
VEL_CS    .M/S                           :7 CHECK SHOT CALIBRATED VELOCITY LOG                                            
AIMP_CS   .MSKM                          :8 ACOUSTIC IMPEDANCE LOG (M/S*KG/CUBICM)                                        
# LOG CURVES
~A MD         TVD          TIME         DT           DTC_CS       RHO_CS       VEL_CS       AIMP_CS    
# ...
    1875.1932     1854.2131     1513.0154       98.0552       98.0552        1.8000     3108.4923  5595286.1529
    1875.3456     1854.3655     1513.1134       98.0552       98.0552        1.8000     3108.4923  5595286.1529
    1875.4980     1854.5179     1513.2114       98.0552       98.0552        1.8000     3108.4923  5595286.1529
    1875.6504     1854.6703     1513.3096       98.0552       98.0552        1.8000     3108.4923  5595286.1529
    1875.8028     1854.8228     1513.4076       98.0552       98.0552        1.8000     3108.4923  5595286.1529
    1875.9552     1854.9751     1513.5056       98.0552       98.0552        1.8000     3108.4923  5595286.1529
    1876.1076     1855.1274     1513.6036       98.0552       98.0552        1.8000     3108.4923  5595286.1529
    1876.2600     1855.2799     1513.7017       98.0552       98.0552        1.8000     3108.4923  5595286.1529
    1876.4124     1855.4323     1513.7997       98.0552       98.0552        1.8000     3108.4923  5595286.1529
    1876.5648     1855.5847     1513.8978       98.0552       98.0552        1.8000     3108.4923  5595286.1529
    1876.7172     1855.7371     1513.9958       98.0552       98.0552        1.8000     3108.4923  5595286.1529
    1876.8696     1855.8895     1514.0939       98.0552       98.0552        1.8000     3108.4923  5595286.1529
    1877.0220     1856.0419     1514.1920       98.0552       98.0552        1.8000     3108.4923  5595286.1529
    1877.1744     1856.1943     1514.2900       98.0552       98.0552        1.8000     3108.4923  5595286.1529
    1877.3268     1856.3467     1514.3882       98.0552       98.0552        1.8000     3108.4923  5595286.1529
    1877.4792     1856.4991     1514.4862       98.0552       98.0552        1.8000     3108.4923  5595286.1529
    1877.6316     1856.6515     1514.5842       98.0552       98.0552        1.8000     3108.4923  5595286.1529
    1877.7840     1856.8040     1514.6823       98.0552       98.0552        1.8000     3108.4923  5595286.1529
    1877.9364     1856.9563     1514.7803       98.0552       98.0552        1.8000     3108.4923  5595286.1529
    1878.0888     1857.1086     1514.8783       98.0552       98.0552        1.8000     3108.4923  5595286.1529
    1878.2412     1857.2611     1514.9763       98.0552       98.0552        1.8000     3108.4923  5595286.1529
    1878.3936     1857.4135     1515.0745       98.0552       98.0552        1.8000     3108.4923  5595286.1529
    1878.5460     1857.5659     1515.1725       98.0552       98.0552        1.8000     3108.4923  5595286.1529
    1878.6984     1857.7183     1515.2706       98.0552       98.0552        1.8000     3108.4923  5595286.1529
    1878.8508     1857.8707     1515.3687       98.0552       98.0552        1.8000     3108.4923  5595286.1529
    1879.0032     1858.0231     1515.4667       98.0552       98.0552        1.8000     3108.4923  5595286.1529
    1879.1556     1858.1755     1515.5648       98.0552       98.0552        1.8000     3108.4923  5595286.1529
    1879.3080     1858.3279     1515.6628       98.0552       98.0552        1.8000     3108.4923  5595286.1529
    1879.4604     1858.4803     1515.7609       98.0552       98.0552        1.8000     3108.4923  5595286.1529
    1879.6128     1858.6327     1515.8589       98.0552       98.0552        1.8000     3108.4923  5595286.1529
    1879.7652     1858.7852     1515.9570       98.0552       98.0552        1.8000     3108.4923  5595286.1529
    1879.9176     1858.9375     1516.0549       98.0552       98.0552        1.8000     3108.4923  5595286.1529
    1880.0700     1859.0898     1516.1531       98.0552       98.0552        1.8000     3108.4923  5595286.1529
    1880.2224     1859.2423     1516.2511       98.0552       98.0552        1.8000     3108.4923  5595286.1529
    1880.3748     1859.3947     1516.3491       98.0552       98.0552        1.8000     3108.4923  5595286.1529
    1880.5272     1859.5471     1516.4473       98.0552       98.0552        1.8000     3108.4923  5595286.1529
    1880.6796     1859.6995     1516.5453       98.0552       98.0552        1.8000     3108.4923  5595286.1529
    1880.8320     1859.8519     1516.6433       98.0552       98.0552        1.8000     3108.4923  5595286.1529
    1880.9844     1860.0043     1516.7415       98.0552       98.0552        1.8000     3108.4923  5595286.1529
    1881.1368     1860.1567     1516.8395       98.0552       98.0552        1.8000     3108.4923  5595286.1529
    1881.2892     1860.3091     1516.9375       98.0552       98.0552        1.8000     3108.4923  5595286.1529
    1881.4416     1860.4615     1517.0356       98.0552       98.0552        1.8000     3108.4923  5595286.1529
    1881.5940     1860.6139     1517.1335       98.0552       98.0552        1.8000     3108.4923  5595286.1529
    1881.7464     1860.7662     1517.2316       98.0552       98.0552        1.8000     3108.4923  5595286.1529
    1881.8988     1860.9187     1517.3297       98.0552       98.0552        1.8000     3108.4923  5595286.1529
    1882.0512     1861.0710     1517.4277       98.0552       98.0552        1.8000     3108.4923  5595286.1529
    1882.2036     1861.2235     1517.5258       98.0552       98.0552        1.8000     3108.4923  5595286.1529
    1882.3560     1861.3759     1517.6238       98.0552       98.0552        1.8000     3108.4923  5595286.1529
    1882.5084     1861.5283     1517.7219       98.0552       98.0552        1.8000     3108.4923  5595286.1529
    1882.6608     1861.6807     1517.8199       98.0552       98.0552        1.8000     3108.4923  5595286.1529
    1882.8132     1861.8331     1517.9181       98.0552       98.0552        1.8000     3108.4923  5595286.1529
    1882.9656     1861.9855     1518.0161       98.0552       98.0552        1.8000     3108.4923  5595286.1529
    1883.1180     1862.1379     1518.1143       98.0552       98.0552        1.8000     3108.4923  5595286.1529
    1883.2704     1862.2903     1518.2123       98.0552       98.0552        1.8000     3108.4923  5595286.1529
    1883.4228     1862.4428     1518.3103       98.0552       98.0552        1.8000     3108.4923  5595286.1529
    1883.5752     1862.5951     1518.4083       98.0552       98.0552        1.8000     3108.4923  5595286.1529
    1883.7276     1862.7474     1518.5063       98.0552       98.0552        1.8000     3108.4923  5595286.1529
    1883.8800     1862.8999     1518.6044       98.0552       98.0552        1.8000     3108.4923  5595286.1529
    1884.0324     1863.0522     1518.7024       98.0552       98.0552        1.8000     3108.4923  5595286.1529
    1884.1848     1863.2047     1518.8005       98.0552       98.0552        1.8000     3108.4923  5595286.1529
    1884.3372     1863.3571     1518.8986       98.0552       98.0552        1.8000     3108.4923  5595286.1529
    1884.4896     1863.5095     1518.9966       98.0552       98.0552        1.8000     3108.4923  5595286.1529
    1884.6420     1863.6619     1519.0947       98.0552       98.0552        1.8000     3108.4923  5595286.1529
    1884.7944     1863.8143     1519.1927       98.0552       98.0552        1.8000     3108.4923  5595286.1529
    1884.9468     1863.9667     1519.2909       98.0552       98.0552        1.8000     3108.4923  5595286.1529
    1885.0992     1864.1191     1519.3889       98.0552       98.0552        1.8000     3108.4923  5595286.1529
    1885.2516     1864.2715     1519.4869       98.0552       98.0552        1.8000     3108.4923  5595286.1529
    1885.4040     1864.4240     1519.5850       98.0552       98.0552        1.8000     3108.4923  5595286.1529
    1885.5564     1864.5763     1519.6830       98.0552       98.0552        1.8000     3108.4923  5595286.1529
    1885.7088     1864.7286     1519.7810       98.0552       98.0552        1.8000     3108.4923  5595286.1529
    1885.8612     1864.8811     1519.8792       98.0552       98.0552        1.8000     3108.4923  5595286.1529
    1886.0136     1865.0334     1519.9772       98.0552       98.0552        1.8000     3108.4923  5595286.1529
