~VERSION INFORMATION
VERS.                                   2:CWLS LOG ASCII STANDARD - VERSION 2.0
WRAP.                                  NO:ONE LINE PER DEPTH STEP
~WELL INFORMATION
#MNEM.UNIT              DATA              DESCRIPTION
#--------- ------------------------------ -------------------------------
 STRT.M                           20.7900:START DEPTH
 STOP.M                         4665.7896:STOP DEPTH
 STEP.M                            0.1524:STEP
 NULL.                          -999.2500:NULL VALUE
 COMP.     WOODSIDE ENERGY LTD.          :COMPANY                                          
 WELL.     TOROSA-1                      :WELL                                             
 FLD .     TOROSA                        :FIELD                                            
 LOC .                                   :LOCATION
 PROV.     AUSTRALIA                     :PROVINCE                                         
 SRVC.     READ WELL SERVICES            :SERVICE COMPANY
 DATE.     24/08 2007                    :LOG DATE
 UWI .                                   :UNIQUE WELL ID
~CURVE INFORMATION
#MNEM.UNIT                                DESCRIPTION
#--------- ------------------------------ -------------------------------
MD        .M                             :1 MEASURED DEPTH FROM RKB                                                       
TVD       .M                             :2 TRUE VERTICAL DEPTH FROM MSL                                                  
TIME      .MS                            :3 TWO-WAY TRAVEL TIME FROM MSL, DERIVED FROM CALIBRATED SONIC LOG               
DT        .US/F                          :4 UNCALIBRATED SONIC LOG. COMPUTED FROM CHECK SHOTS ABOVE 2875.3 M MD RKB.      
DTC_CS    .US/F                          :5 CHECK SHOT CALIBRATED SONIC LOG                                               
RHO_CS    .G/CC                          :6 DENSITY LOG                                                                   
VEL_CS    .M/S                           :7 CHECK SHOT CALIBRATED VELOCITY LOG                                            
AIMP_CS   .MSKM                          :8 ACOUSTIC IMPEDANCE LOG (M/S*KG/CUBICM)                                        
# LOG CURVES
~A MD         TVD          TIME         DT           DTC_CS       RHO_CS       VEL_CS       AIMP_CS    
# ...
    1260.7164     1239.8810     1117.7548       98.0552       98.0552        1.8000     3108.4923  5595286.1529
    1260.8688     1240.0333     1117.8529       98.0552       98.0552        1.8000     3108.4923  5595286.1529
    1261.0212     1240.1858     1117.9509       98.0552       98.0552        1.8000     3108.4923  5595286.1529
    1261.1736     1240.3380     1118.0490       98.0552       98.0552        1.8000     3108.4923  5595286.1529
    1261.3260     1240.4905     1118.1470       98.0552       98.0552        1.8000     3108.4923  5595286.1529
    1261.4784     1240.6428     1118.2450       98.0552       98.0552        1.8000     3108.4923  5595286.1529
    1261.6308     1240.7953     1118.3431       98.0552       98.0552        1.8000     3108.4923  5595286.1529
    1261.7832     1240.9476     1118.4410       98.0552       98.0552        1.8000     3108.4923  5595286.1529
    1261.9356     1241.0999     1118.5391       98.0552       98.0552        1.8000     3108.4923  5595286.1529
    1262.0880     1241.2523     1118.6371       98.0552       98.0552        1.8000     3108.4923  5595286.1529
    1262.2404     1241.4047     1118.7352       98.0552       98.0552        1.8000     3108.4923  5595286.1529
    1262.3928     1241.5571     1118.8333       98.0552       98.0552        1.8000     3108.4923  5595286.1529
    1262.5452     1241.7094     1118.9313       98.0552       98.0552        1.8000     3108.4923  5595286.1529
    1262.6976     1241.8618     1119.0293       98.0552       98.0552        1.8000     3108.4923  5595286.1529
    1262.8500     1242.0142     1119.1273       98.0552       98.0552        1.8000     3108.4923  5595286.1529
    1263.0024     1242.1666     1119.2253       98.0552       98.0552        1.8000     3108.4923  5595286.1529
    1263.1548     1242.3190     1119.3234       98.0552       98.0552        1.8000     3108.4923  5595286.1529
    1263.3072     1242.4713     1119.4215       98.0552       98.0552        1.8000     3108.4923  5595286.1529
    1263.4596     1242.6237     1119.5194       98.0552       98.0552        1.8000     3108.4923  5595286.1529
    1263.6120     1242.7760     1119.6176       98.0552       98.0552        1.8000     3108.4923  5595286.1529
    1263.7644     1242.9285     1119.7156       98.0552       98.0552        1.8000     3108.4923  5595286.1529
    1263.9168     1243.0807     1119.8136       98.0552       98.0552        1.8000     3108.4923  5595286.1529
    1264.0692     1243.2332     1119.9116       98.0552       98.0552        1.8000     3108.4923  5595286.1529
    1264.2216     1243.3855     1120.0098       98.0552       98.0552        1.8000     3108.4923  5595286.1529
    1264.3740     1243.5380     1120.1078       98.0552       98.0552        1.8000     3108.4923  5595286.1529
    1264.5264     1243.6903     1120.2058       98.0552       98.0552        1.8000     3108.4923  5595286.1529
    1264.6788     1243.8427     1120.3037       98.0552       98.0552        1.8000     3108.4923  5595286.1529
    1264.8312     1243.9950     1120.4017       98.0552       98.0552        1.8000     3108.4923  5595286.1529
    1264.9836     1244.1475     1120.4999       98.0552       98.0552        1.8000     3108.4923  5595286.1529
    1265.1360     1244.2998     1120.5979       98.0552       98.0552        1.8000     3108.4923  5595286.1529
    1265.2884     1244.4522     1120.6959       98.0552       98.0552        1.8000     3108.4923  5595286.1529
    1265.4408     1244.6045     1120.7939       98.0552       98.0552        1.8000     3108.4923  5595286.1529
    1265.5932     1244.7568     1120.8920       98.0552       98.0552        1.8000     3108.4923  5595286.1529
    1265.7456     1244.9093     1120.9900       98.0552       98.0552        1.8000     3108.4923  5595286.1529
    1265.8980     1245.0615     1121.0880       98.0552       98.0552        1.8000     3108.4923  5595286.1529
    1266.0504     1245.2140     1121.1860       98.0552       98.0552        1.8000     3108.4923  5595286.1529
    1266.2028     1245.3663     1121.2842       98.0552       98.0552        1.8000     3108.4923  5595286.1529
    1266.3552     1245.5188     1121.3822       98.0552       98.0552        1.8000     3108.4923  5595286.1529
    1266.5076     1245.6711     1121.4802       98.0552       98.0552        1.8000     3108.4923  5595286.1529
    1266.6600     1245.8235     1121.5782       98.0552       98.0552        1.8000     3108.4923  5595286.1529
    1266.8124     1245.9758     1121.6763       98.0552       98.0552        1.8000     3108.4923  5595286.1529
    1266.9648     1246.1283     1121.7743       98.0552       98.0552        1.8000     3108.4923  5595286.1529
    1267.1172     1246.2806     1121.8723       98.0552       98.0552        1.8000     3108.4923  5595286.1529
    1267.2696     1246.4330     1121.9705       98.0552       98.0552        1.8000     3108.4923  5595286.1529
    1267.4220     1246.5853     1122.0684       98.0552       98.0552        1.8000     3108.4923  5595286.1529
    1267.5744     1246.7377     1122.1664       98.0552       98.0552        1.8000     3108.4923  5595286.1529
    1267.7268     1246.8901     1122.2645       98.0552       98.0552        1.8000     3108.4923  5595286.1529
    1267.8792     1247.0425     1122.3625       98.0552       98.0552        1.8000     3108.4923  5595286.1529
    1268.0316     1247.1948     1122.4606       98.0552       98.0552        1.8000     3108.4923  5595286.1529
    1268.1840     1247.3472     1122.5586       98.0552       98.0552        1.8000     3108.4923  5595286.1529
    1268.3364     1247.4996     1122.6567       98.0552       98.0552        1.8000     3108.4923  5595286.1529
    1268.4888     1247.6520     1122.7546       98.0552       98.0552        1.8000     3108.4923  5595286.1529
    1268.6412     1247.8043     1122.8527       98.0552       98.0552        1.8000     3108.4923  5595286.1529
    1268.7936     1247.9567     1122.9507       98.0552       98.0552        1.8000     3108.4923  5595286.1529
    1268.9460     1248.1091     1123.0488       98.0552       98.0552        1.8000     3108.4923  5595286.1529
    1269.0984     1248.2615     1123.1469       98.0552       98.0552        1.8000     3108.4923  5595286.1529
    1269.2508     1248.4139     1123.2449       98.0552       98.0552        1.8000     3108.4923  5595286.1529
    1269.4032     1248.5662     1123.3429       98.0552       98.0552        1.8000     3108.4923  5595286.1529
    1269.5556     1248.7185     1123.4409       98.0552       98.0552        1.8000     3108.4923  5595286.1529
    1269.7080     1248.8710     1123.5389       98.0552       98.0552        1.8000     3108.4923  5595286.1529
    1269.8604     1249.0233     1123.6370       98.0552       98.0552        1.8000     3108.4923  5595286.1529
    1270.0128     1249.1757     1123.7350       98.0552       98.0552        1.8000     3108.4923  5595286.1529
    1270.1652     1249.3280     1123.8331       98.0552       98.0552        1.8000     3108.4923  5595286.1529
    1270.3176     1249.4805     1123.9312       98.0552       98.0552        1.8000     3108.4923  5595286.1529
    1270.4700     1249.6328     1124.0292       98.0552       98.0552        1.8000     3108.4923  5595286.1529
    1270.6224     1249.7852     1124.1272       98.0552       98.0552        1.8000     3108.4923  5595286.1529
    1270.7748     1249.9375     1124.2252       98.0552       98.0552        1.8000     3108.4923  5595286.1529
    1270.9272     1250.0900     1124.3232       98.0552       98.0552        1.8000     3108.4923  5595286.1529
    1271.0796     1250.2423     1124.4213       98.0552       98.0552        1.8000     3108.4923  5595286.1529
    1271.2320     1250.3948     1124.5193       98.0552       98.0552        1.8000     3108.4923  5595286.1529
    1271.3844     1250.5470     1124.6173       98.0552       98.0552        1.8000     3108.4923  5595286.1529
    1271.5368     1250.6993     1124.7153       98.0552       98.0552        1.8000     3108.4923  5595286.1529
