~VERSION INFORMATION
VERS.                                   2:CWLS LOG ASCII STANDARD - VERSION 2.0
WRAP.                                  NO:ONE LINE PER DEPTH STEP
~WELL INFORMATION
#MNEM.UNIT              DATA              DESCRIPTION
#--------- ------------------------------ -------------------------------
 STRT.M                           20.7900:START DEPTH
 STOP.M                         4665.7896:STOP DEPTH
 STEP.M                            0.1524:STEP
 NULL.                          -999.2500:NULL VALUE
 COMP.     WOODSIDE ENERGY LTD.          :COMPANY                                          
 WELL.     TOROSA-1                      :WELL                                             
 FLD .     TOROSA                        :FIELD                                            
 LOC .                                   :LOCATION
 PROV.     AUSTRALIA                     :PROVINCE                                         
 SRVC.     READ WELL SERVICES            :SERVICE COMPANY
 DATE.     24/08 2007                    :LOG DATE
 UWI .                                   :UNIQUE WELL ID
~CURVE INFORMATION
#MNEM.UNIT                                DESCRIPTION
#--------- ------------------------------ -------------------------------
MD        .M                             :1 MEASURED DEPTH FROM RKB                                                       
TVD       .M                             :2 TRUE VERTICAL DEPTH FROM MSL                                                  
TIME      .MS                            :3 TWO-WAY TRAVEL TIME FROM MSL, DERIVED FROM CALIBRATED SONIC LOG               
DT        .US/F                          :4 UNCALIBRATED SONIC LOG. COMPUTED FROM CHECK SHOTS ABOVE 2875.3 M MD RKB.      
DTC_CS    .US/F                          :5 CHECK SHOT CALIBRATED SONIC LOG                                               
RHO_CS    .G/CC                          :6 DENSITY LOG                                                                   
VEL_CS    .M/S                           :7 CHECK SHOT CALIBRATED VELOCITY LOG                                            
AIMP_CS   .MSKM                          :8 ACOUSTIC IMPEDANCE LOG (M/S*KG/CUBICM)                                        
# LOG CURVES
~A MD         TVD          TIME         DT           DTC_CS       RHO_CS       VEL_CS       AIMP_CS    
# ...
    1567.9548     1547.0261     1315.3716       98.0552       98.0552        1.8000     3108.4923  5595286.1529
    1568.1072     1547.1785     1315.4696       98.0552       98.0552        1.8000     3108.4923  5595286.1529
    1568.2596     1547.3308     1315.5676       98.0552       98.0552        1.8000     3108.4923  5595286.1529
    1568.4120     1547.4832     1315.6658       98.0552       98.0552        1.8000     3108.4923  5595286.1529
    1568.5644     1547.6355     1315.7637       98.0552       98.0552        1.8000     3108.4923  5595286.1529
    1568.7168     1547.7878     1315.8617       98.0552       98.0552        1.8000     3108.4923  5595286.1529
    1568.8692     1547.9401     1315.9597       98.0552       98.0552        1.8000     3108.4923  5595286.1529
    1569.0216     1548.0925     1316.0577       98.0552       98.0552        1.8000     3108.4923  5595286.1529
    1569.1740     1548.2449     1316.1558       98.0552       98.0552        1.8000     3108.4923  5595286.1529
    1569.3264     1548.3972     1316.2538       98.0552       98.0552        1.8000     3108.4923  5595286.1529
    1569.4788     1548.5496     1316.3518       98.0552       98.0552        1.8000     3108.4923  5595286.1529
    1569.6312     1548.7019     1316.4498       98.0552       98.0552        1.8000     3108.4923  5595286.1529
    1569.7836     1548.8542     1316.5479       98.0552       98.0552        1.8000     3108.4923  5595286.1529
    1569.9360     1549.0066     1316.6459       98.0552       98.0552        1.8000     3108.4923  5595286.1529
    1570.0884     1549.1589     1316.7439       98.0552       98.0552        1.8000     3108.4923  5595286.1529
    1570.2408     1549.3113     1316.8419       98.0552       98.0552        1.8000     3108.4923  5595286.1529
    1570.3932     1549.4636     1316.9399       98.0552       98.0552        1.8000     3108.4923  5595286.1529
    1570.5456     1549.6160     1317.0380       98.0552       98.0552        1.8000     3108.4923  5595286.1529
    1570.6980     1549.7683     1317.1359       98.0552       98.0552        1.8000     3108.4923  5595286.1529
    1570.8504     1549.9207     1317.2339       98.0552       98.0552        1.8000     3108.4923  5595286.1529
    1571.0028     1550.0730     1317.3319       98.0552       98.0552        1.8000     3108.4923  5595286.1529
    1571.1552     1550.2253     1317.4301       98.0552       98.0552        1.8000     3108.4923  5595286.1529
    1571.3076     1550.3777     1317.5280       98.0552       98.0552        1.8000     3108.4923  5595286.1529
    1571.4600     1550.5300     1317.6260       98.0552       98.0552        1.8000     3108.4923  5595286.1529
    1571.6124     1550.6824     1317.7240       98.0552       98.0552        1.8000     3108.4923  5595286.1529
    1571.7648     1550.8347     1317.8221       98.0552       98.0552        1.8000     3108.4923  5595286.1529
    1571.9172     1550.9871     1317.9200       98.0552       98.0552        1.8000     3108.4923  5595286.1529
    1572.0696     1551.1394     1318.0181       98.0552       98.0552        1.8000     3108.4923  5595286.1529
    1572.2220     1551.2919     1318.1162       98.0552       98.0552        1.8000     3108.4923  5595286.1529
    1572.3744     1551.4441     1318.2142       98.0552       98.0552        1.8000     3108.4923  5595286.1529
    1572.5268     1551.5966     1318.3121       98.0552       98.0552        1.8000     3108.4923  5595286.1529
    1572.6792     1551.7488     1318.4102       98.0552       98.0552        1.8000     3108.4923  5595286.1529
    1572.8316     1551.9011     1318.5082       98.0552       98.0552        1.8000     3108.4923  5595286.1529
    1572.9840     1552.0535     1318.6062       98.0552       98.0552        1.8000     3108.4923  5595286.1529
    1573.1364     1552.2058     1318.7042       98.0552       98.0552        1.8000     3108.4923  5595286.1529
    1573.2888     1552.3582     1318.8022       98.0552       98.0552        1.8000     3108.4923  5595286.1529
    1573.4412     1552.5105     1318.9003       98.0552       98.0552        1.8000     3108.4923  5595286.1529
    1573.5936     1552.6628     1318.9983       98.0552       98.0552        1.8000     3108.4923  5595286.1529
    1573.7460     1552.8152     1319.0963       98.0552       98.0552        1.8000     3108.4923  5595286.1529
    1573.8984     1552.9677     1319.1943       98.0552       98.0552        1.8000     3108.4923  5595286.1529
    1574.0508     1553.1199     1319.2924       98.0552       98.0552        1.8000     3108.4923  5595286.1529
    1574.2032     1553.2723     1319.3904       98.0552       98.0552        1.8000     3108.4923  5595286.1529
    1574.3556     1553.4246     1319.4884       98.0552       98.0552        1.8000     3108.4923  5595286.1529
    1574.5080     1553.5770     1319.5864       98.0552       98.0552        1.8000     3108.4923  5595286.1529
    1574.6604     1553.7292     1319.6843       98.0552       98.0552        1.8000     3108.4923  5595286.1529
    1574.8128     1553.8816     1319.7825       98.0552       98.0552        1.8000     3108.4923  5595286.1529
    1574.9652     1554.0339     1319.8805       98.0552       98.0552        1.8000     3108.4923  5595286.1529
    1575.1176     1554.1863     1319.9785       98.0552       98.0552        1.8000     3108.4923  5595286.1529
    1575.2700     1554.3387     1320.0765       98.0552       98.0552        1.8000     3108.4923  5595286.1529
    1575.4224     1554.4910     1320.1746       98.0552       98.0552        1.8000     3108.4923  5595286.1529
    1575.5748     1554.6434     1320.2726       98.0552       98.0552        1.8000     3108.4923  5595286.1529
    1575.7272     1554.7957     1320.3706       98.0552       98.0552        1.8000     3108.4923  5595286.1529
    1575.8796     1554.9481     1320.4686       98.0552       98.0552        1.8000     3108.4923  5595286.1529
    1576.0320     1555.1003     1320.5665       98.0552       98.0552        1.8000     3108.4923  5595286.1529
    1576.1844     1555.2528     1320.6647       98.0552       98.0552        1.8000     3108.4923  5595286.1529
    1576.3368     1555.4050     1320.7627       98.0552       98.0552        1.8000     3108.4923  5595286.1529
    1576.4892     1555.5575     1320.8607       98.0552       98.0552        1.8000     3108.4923  5595286.1529
    1576.6416     1555.7098     1320.9586       98.0552       98.0552        1.8000     3108.4923  5595286.1529
    1576.7940     1555.8621     1321.0566       98.0552       98.0552        1.8000     3108.4923  5595286.1529
    1576.9464     1556.0145     1321.1547       98.0552       98.0552        1.8000     3108.4923  5595286.1529
    1577.0988     1556.1667     1321.2528       98.0552       98.0552        1.8000     3108.4923  5595286.1529
    1577.2512     1556.3192     1321.3507       98.0552       98.0552        1.8000     3108.4923  5595286.1529
    1577.4036     1556.4714     1321.4487       98.0552       98.0552        1.8000     3108.4923  5595286.1529
    1577.5560     1556.6239     1321.5468       98.0552       98.0552        1.8000     3108.4923  5595286.1529
    1577.7084     1556.7761     1321.6448       98.0552       98.0552        1.8000     3108.4923  5595286.1529
    1577.8608     1556.9286     1321.7428       98.0552       98.0552        1.8000     3108.4923  5595286.1529
    1578.0132     1557.0808     1321.8408       98.0552       98.0552        1.8000     3108.4923  5595286.1529
    1578.1656     1557.2333     1321.9388       98.0552       98.0552        1.8000     3108.4923  5595286.1529
    1578.3180     1557.3856     1322.0369       98.0552       98.0552        1.8000     3108.4923  5595286.1529
    1578.4704     1557.5380     1322.1350       98.0552       98.0552        1.8000     3108.4923  5595286.1529
    1578.6228     1557.6903     1322.2329       98.0552       98.0552        1.8000     3108.4923  5595286.1529
    1578.7752     1557.8425     1322.3309       98.0552       98.0552        1.8000     3108.4923  5595286.1529
