~VERSION INFORMATION
VERS.                                   2:CWLS LOG ASCII STANDARD - VERSION 2.0
WRAP.                                  NO:ONE LINE PER DEPTH STEP
~WELL INFORMATION
#MNEM.UNIT              DATA              DESCRIPTION
#--------- ------------------------------ -------------------------------
 STRT.M                           20.7900:START DEPTH
 STOP.M                         4665.7896:STOP DEPTH
 STEP.M                            0.1524:STEP
 NULL.                          -999.2500:NULL VALUE
 COMP.     WOODSIDE ENERGY LTD.          :COMPANY                                          
 WELL.     TOROSA-1                      :WELL                                             
 FLD .     TOROSA                        :FIELD                                            
 LOC .                                   :LOCATION
 PROV.     AUSTRALIA                     :PROVINCE                                         
 SRVC.     READ WELL SERVICES            :SERVICE COMPANY
 DATE.     24/08 2007                    :LOG DATE
 UWI .                                   :UNIQUE WELL ID
~CURVE INFORMATION
#MNEM.UNIT                                DESCRIPTION
#--------- ------------------------------ -------------------------------
MD        .M                             :1 MEASURED DEPTH FROM RKB                                                       
TVD       .M                             :2 TRUE VERTICAL DEPTH FROM MSL                                                  
TIME      .MS                            :3 TWO-WAY TRAVEL TIME FROM MSL, DERIVED FROM CALIBRATED SONIC LOG               
DT        .US/F                          :4 UNCALIBRATED SONIC LOG. COMPUTED FROM CHECK SHOTS ABOVE 2875.3 M MD RKB.      
DTC_CS    .US/F                          :5 CHECK SHOT CALIBRATED SONIC LOG                                               
RHO_CS    .G/CC                          :6 DENSITY LOG                                                                   
VEL_CS    .M/S                           :7 CHECK SHOT CALIBRATED VELOCITY LOG                                            
AIMP_CS   .MSKM                          :8 ACOUSTIC IMPEDANCE LOG (M/S*KG/CUBICM)                                        
# LOG CURVES
~A MD         TVD          TIME         DT           DTC_CS       RHO_CS       VEL_CS       AIMP_CS    
# ...
    3411.3852     3390.0951     2378.6770       63.5561       60.3908        1.8000     5047.1892  9084940.5367
    3411.5376     3390.2477     2378.7375       63.8901       60.7082        1.8000     5020.8002  9037440.4459
    3411.6900     3390.4000     2378.7981       64.2606       61.0603        1.8000     4991.8490  8985328.1829
    3411.8424     3390.5524     2378.8594       64.6017       61.3844        1.8000     4965.4949  8937890.8737
    3411.9948     3390.7047     2378.9209       64.5888       61.3721        1.8000     4966.4869  8939676.4590
    3412.1472     3390.8571     2378.9822       64.4577       61.2475        1.8000     4976.5898  8957861.6979
    3412.2996     3391.0096     2379.0435       64.5350       61.3209        1.8000     4970.6298  8947133.6331
    3412.4520     3391.1620     2379.1050       64.8137       61.5858        1.8000     4949.2537  8908656.7392
    3412.6044     3391.3143     2379.1667       65.2873       62.0358        1.8000     4913.3515  8844032.6713
    3412.7568     3391.4667     2379.2288       65.4695       62.2090        1.8000     4899.6742  8819413.5751
    3412.9092     3391.6193     2379.2910       65.2100       61.9624        1.8000     4919.1728  8854511.0767
    3413.0616     3391.7716     2379.3530       65.3870       62.1306        1.8000     4905.8573  8830543.1653
    3413.2140     3391.9240     2379.4153       65.7035       62.4313        1.8000     4882.2295  8788013.1160
    3413.3664     3392.0763     2379.4775       65.6087       62.3412        1.8000     4889.2845  8800712.1727
    3413.5188     3392.2286     2379.5400       65.7414       62.4672        1.8000     4879.4164  8782949.4640
    3413.6712     3392.3812     2379.6025       65.8676       62.5872        1.8000     4870.0608  8766109.5195
    3413.8236     3392.5336     2379.6650       65.7608       62.4858        1.8000     4877.9706  8780347.0432
    3413.9760     3392.6859     2379.7275       65.7019       62.4297        1.8000     4882.3476  8788225.7311
    3414.1284     3392.8383     2379.7898       65.5077       62.2453        1.8000     4896.8177  8814271.7807
    3414.2808     3392.9908     2379.8518       65.1735       61.9277        1.8000     4921.9298  8859473.6006
    3414.4332     3393.1432     2379.9138       65.0250       61.7866        1.8000     4933.1688  8879703.8627
    3414.5856     3393.2955     2379.9756       65.1411       61.8969        1.8000     4924.3764  8863877.6047
    3414.7380     3393.4479     2380.0376       65.2066       61.9591        1.8000     4919.4323  8854978.0514
    3414.8904     3393.6005     2380.0999       65.6791       62.4081        1.8000     4884.0390  8791270.1545
    3415.0428     3393.7528     2380.1626       66.3513       63.0468        1.8000     4834.5637  8702214.5825
    3415.1952     3393.9052     2380.2251       65.5547       62.2899        1.8000     4893.3077  8807953.8631
    3415.3476     3394.0575     2380.2869       64.1376       60.9433        1.8000     5001.4269  9002568.4100
    3415.5000     3394.2098     2380.3474       63.6803       60.5088        1.8000     5037.3431  9067217.5373
    3415.6524     3394.3624     2380.4080       63.6356       60.4664        1.8000     5040.8813  9073586.4047
    3415.8048     3394.5148     2380.4685       63.8918       60.7098        1.8000     5020.6671  9037200.8494
    3415.9572     3394.6671     2380.5295       64.2938       61.0917        1.8000     4989.2780  8980700.3792
    3416.1096     3394.8195     2380.5908       64.7047       61.4822        1.8000     4957.5890  8923660.2090
    3416.2620     3394.9720     2380.6526       65.1964       61.9495        1.8000     4920.2003  8856360.5050
    3416.4144     3395.1244     2380.7146       65.3558       62.1009        1.8000     4908.2003  8834760.5924
    3416.5668     3395.2767     2380.7766       65.4751       62.2143        1.8000     4899.2552  8818659.2963
    3416.7192     3395.4291     2380.8389       65.7453       62.4710        1.8000     4879.1208  8782417.4574
    3416.8716     3395.5817     2380.9014       65.5661       62.3008        1.8000     4892.4548  8806418.5730
    3417.0240     3395.7340     2380.9634       64.9072       61.6746        1.8000     4942.1253  8895825.5272
    3417.1764     3395.8864     2381.0249       64.6685       61.4479        1.8000     4960.3637  8928654.6638
    3417.3288     3396.0387     2381.0864       64.9663       61.7308        1.8000     4937.6286  8887731.5274
    3417.4812     3396.1910     2381.1479       64.4213       61.2130        1.8000     4979.3969  8962914.4190
    3417.6336     3396.3436     2381.2085       63.0150       59.8766        1.8000     5090.5275  9162949.5410
    3417.7860     3396.4960     2381.2683       62.5101       59.3969        1.8000     5131.6445  9236960.1283
    3417.9384     3396.6483     2381.3279       63.0285       59.8895        1.8000     5089.4359  9160984.6223
    3418.0908     3396.8007     2381.3879       63.6566       60.4863        1.8000     5039.2186  9070593.4082
    3418.2432     3396.9532     2381.4487       64.2318       61.0329        1.8000     4994.0922  8989365.9420
    3418.3956     3397.1056     2381.5100       64.8275       61.5989        1.8000     4948.2028  8906765.0623
    3418.5480     3397.2579     2381.5718       65.0011       61.7638        1.8000     4934.9866  8882975.7946
    3418.7004     3397.4103     2381.6335       64.6611       61.4408        1.8000     4960.9340  8929681.1880
    3418.8528     3397.5629     2381.6948       64.4211       61.2127        1.8000     4979.4188  8962953.8776
    3419.0052     3397.7152     2381.7559       64.4822       61.2708        1.8000     4974.6938  8954448.8398
    3419.1576     3397.8676     2381.8169       64.1582       60.9630        1.8000     4999.8155  8999667.9653
    3419.3100     3398.0199     2381.8774       63.1205       59.9769        1.8000     5082.0150  9147626.9155
    3419.4624     3398.1722     2381.9373       62.1929       59.0955        1.8000     5157.8137  9284064.6684
    3419.6148     3398.3248     2381.9958       61.6464       58.5762        1.8000     5203.5422  9366375.9372
    3419.7672     3398.4772     2382.0547       61.8764       58.7948        1.8000     5184.1954  9331551.6698
    3419.9196     3398.6295     2382.1138       62.6988       59.5762        1.8000     5116.1995  9209159.0737
    3420.0720     3398.7819     2382.1736       63.0181       59.8796        1.8000     5090.2737  9162492.6450
    3420.2244     3398.9345     2382.2334       62.9464       59.8115        1.8000     5096.0708  9172927.4097
    3420.3768     3399.0868     2382.2930       62.7642       59.6383        1.8000     5110.8698  9199565.6030
    3420.5292     3399.2391     2382.3525       62.7945       59.6672        1.8000     5108.3982  9195116.7388
    3420.6816     3399.3915     2382.4124       62.9150       59.7816        1.8000     5098.6189  9177514.0862
    3420.8340     3399.5441     2382.4719       62.5604       59.4448        1.8000     5127.5118  9229521.2978
    3420.9864     3399.6964     2382.5312       62.1765       59.0799        1.8000     5159.1757  9286516.2040
    3421.1388     3399.8488     2382.5903       62.0922       58.9998        1.8000     5166.1794  9299122.9867
    3421.2912     3400.0011     2382.6492       62.1166       59.0230        1.8000     5164.1534  9295476.0679
    3421.4436     3400.1534     2382.7085       62.3358       59.2313        1.8000     5145.9911  9262784.0436
    3421.5960     3400.3060     2382.7678       62.6525       59.5322        1.8000     5119.9769  9215958.3413
    3421.7484     3400.4584     2382.8274       62.8326       59.7034        1.8000     5105.3021  9189543.8328
    3421.9008     3400.6107     2382.8875       63.2187       60.0702        1.8000     5074.1213  9133418.3657
    3422.0532     3400.7631     2382.9478       63.8948       60.7127        1.8000     5020.4308  9036775.3836
    3422.2056     3400.9157     2383.0088       64.3399       61.1355        1.8000     4985.7033  8974266.0261
