~VERSION INFORMATION
VERS.                                   2:CWLS LOG ASCII STANDARD - VERSION 2.0
WRAP.                                  NO:ONE LINE PER DEPTH STEP
~WELL INFORMATION
#MNEM.UNIT              DATA              DESCRIPTION
#--------- ------------------------------ -------------------------------
 STRT.M                           20.7900:START DEPTH
 STOP.M                         4665.7896:STOP DEPTH
 STEP.M                            0.1524:STEP
 NULL.                          -999.2500:NULL VALUE
 COMP.     WOODSIDE ENERGY LTD.          :COMPANY                                          
 WELL.     TOROSA-1                      :WELL                                             
 FLD .     TOROSA                        :FIELD                                            
 LOC .                                   :LOCATION
 PROV.     AUSTRALIA                     :PROVINCE                                         
 SRVC.     READ WELL SERVICES            :SERVICE COMPANY
 DATE.     24/08 2007                    :LOG DATE
 UWI .                                   :UNIQUE WELL ID
~CURVE INFORMATION
#MNEM.UNIT                                DESCRIPTION
#--------- ------------------------------ -------------------------------
MD        .M                             :1 MEASURED DEPTH FROM RKB                                                       
TVD       .M                             :2 TRUE VERTICAL DEPTH FROM MSL                                                  
TIME      .MS                            :3 TWO-WAY TRAVEL TIME FROM MSL, DERIVED FROM CALIBRATED SONIC LOG               
DT        .US/F                          :4 UNCALIBRATED SONIC LOG. COMPUTED FROM CHECK SHOTS ABOVE 2875.3 M MD RKB.      
DTC_CS    .US/F                          :5 CHECK SHOT CALIBRATED SONIC LOG                                               
RHO_CS    .G/CC                          :6 DENSITY LOG                                                                   
VEL_CS    .M/S                           :7 CHECK SHOT CALIBRATED VELOCITY LOG                                            
AIMP_CS   .MSKM                          :8 ACOUSTIC IMPEDANCE LOG (M/S*KG/CUBICM)                                        
# LOG CURVES
~A MD         TVD          TIME         DT           DTC_CS       RHO_CS       VEL_CS       AIMP_CS    
# ...
    3104.1468     3082.9147     2253.5339       84.5424       84.5424        1.8000     3605.3365  6489605.6957
    3104.2992     3083.0668     2253.6184       84.5414       84.5414        1.8000     3605.3777  6489679.9199
    3104.4516     3083.2191     2253.7031       84.5404       84.5404        1.8000     3605.4190  6489754.1458
    3104.6040     3083.3715     2253.7876       84.5398       84.5398        1.8000     3605.4471  6489804.7852
    3104.7564     3083.5240     2253.8721       84.5400       84.5400        1.8000     3605.4356  6489784.1246
    3104.9088     3083.6761     2253.9565       84.5410       84.5410        1.8000     3605.3944  6489709.8980
    3105.0612     3083.8285     2254.0410       84.5420       84.5420        1.8000     3605.3532  6489635.6731
    3105.2136     3083.9808     2254.1257       84.5430       84.5430        1.8000     3605.3119  6489561.4499
    3105.3660     3084.1334     2254.2102       84.5439       84.5439        1.8000     3605.2707  6489487.2284
    3105.5184     3084.2858     2254.2947       84.5449       84.5449        1.8000     3605.2294  6489413.0085
    3105.6708     3084.4379     2254.3792       84.5459       84.5459        1.8000     3605.1882  6489338.7904
    3105.8232     3084.5902     2254.4636       84.5468       84.5468        1.8000     3605.1468  6489264.2898
    3105.9756     3084.7428     2254.5483       84.5478       84.5478        1.8000     3605.1054  6489189.6784
    3106.1280     3084.8951     2254.6326       84.5488       84.5488        1.8000     3605.0641  6489115.4653
    3106.2804     3085.0472     2254.7170       84.5497       84.5497        1.8000     3605.0229  6489041.2540
    3106.4328     3085.1996     2254.8018       84.5507       84.5507        1.8000     3604.9817  6488967.0444
    3106.5852     3085.3519     2254.8862       84.5517       84.5517        1.8000     3604.9405  6488892.8365
    3106.7376     3085.5045     2254.9707       84.5526       84.5526        1.8000     3604.8992  6488818.6302
    3106.8900     3085.6566     2255.0552       84.5536       84.5536        1.8000     3604.8580  6488744.4257
    3107.0424     3085.8090     2255.1396       84.5546       84.5546        1.8000     3604.8168  6488670.2228
    3107.1948     3085.9613     2255.2244       84.5555       84.5555        1.8000     3604.7754  6488595.7376
    3107.3472     3086.1139     2255.3088       84.5565       84.5565        1.8000     3604.7340  6488521.1415
    3107.4996     3086.2660     2255.3933       84.5575       84.5575        1.8000     3604.6927  6488446.9438
    3107.6520     3086.4183     2255.4778       84.5584       84.5584        1.8000     3604.6515  6488372.7478
    3107.8044     3086.5707     2255.5623       84.5594       84.5594        1.8000     3604.6103  6488298.5534
    3107.9568     3086.7233     2255.6470       84.5604       84.5604        1.8000     3604.5691  6488224.3608
    3108.1092     3086.8756     2255.7314       84.5613       84.5613        1.8000     3604.5279  6488150.1699
    3108.2616     3087.0277     2255.8159       84.5611       84.5611        1.8000     3604.5360  6488164.8875
    3108.4140     3087.1801     2255.9004       84.5589       84.5589        1.8000     3604.6324  6488338.3983
    3108.5664     3087.3324     2255.9851       84.5560       84.5560        1.8000     3604.7560  6488560.8766
    3108.7188     3087.4850     2256.0696       84.5531       84.5531        1.8000     3604.8799  6488783.8794
    3108.8712     3087.6371     2256.1541       84.5502       84.5502        1.8000     3605.0038  6489006.7849
    3109.0236     3087.7894     2256.2385       84.5473       84.5473        1.8000     3605.1275  6489229.5342
    3109.1760     3087.9418     2256.3232       84.5444       84.5444        1.8000     3605.2510  6489451.7894
    3109.3284     3088.0944     2256.4077       84.5415       84.5415        1.8000     3605.3749  6489674.7408
    3109.4808     3088.2465     2256.4919       84.5386       84.5386        1.8000     3605.4988  6489897.8202
    3109.6332     3088.3988     2256.5767       84.5357       84.5357        1.8000     3605.6225  6490120.5180
    3109.7856     3088.5511     2256.6611       84.5328       84.5328        1.8000     3605.7462  6490343.2311
    3109.9380     3088.7037     2256.7458       84.5299       84.5299        1.8000     3605.8701  6490566.2438
    3110.0904     3088.8558     2256.8301       84.5291       84.5291        1.8000     3605.9031  6490625.6425
    3110.2428     3089.0082     2256.9146       84.5316       84.5316        1.8000     3605.7964  6490433.5816
    3110.3952     3089.1605     2256.9990       84.5345       84.5345        1.8000     3605.6723  6490210.1812
    3110.5476     3089.3129     2257.0837       84.5374       84.5374        1.8000     3605.5484  6489987.0804
    3110.7000     3089.4655     2257.1682       84.5403       84.5403        1.8000     3605.4247  6489764.3917
    3110.8524     3089.6176     2257.2527       84.5432       84.5432        1.8000     3605.3008  6489541.4341
    3111.0048     3089.7699     2257.3372       84.5461       84.5461        1.8000     3605.1769  6489318.3792
    3111.1572     3089.9222     2257.4219       84.5490       84.5490        1.8000     3605.0530  6489095.4523
    3111.3096     3090.0748     2257.5063       84.5519       84.5519        1.8000     3604.9291  6488872.4281
    3111.4620     3090.2269     2257.5906       84.5548       84.5548        1.8000     3604.8055  6488649.8159
    3111.6144     3090.3793     2257.6753       84.5577       84.5577        1.8000     3604.6816  6488426.9349
    3111.7668     3090.5316     2257.7598       84.5573       84.5573        1.8000     3604.6982  6488456.7755
    3111.9192     3090.6842     2257.8442       84.4922       84.4922        1.8000     3607.4772  6493458.9846
    3112.0716     3090.8363     2257.9285       84.3429       84.3429        1.8000     3613.8622  6504952.0383
    3112.2240     3090.9886     2258.0129       84.1934       84.1934        1.8000     3620.2800  6516503.9647
    3112.3764     3091.1410     2258.0969       84.0441       84.0441        1.8000     3626.7131  6528083.6518
    3112.5288     3091.2933     2258.1809       83.8949       83.8949        1.8000     3633.1593  6539686.7232
    3112.6812     3091.4459     2258.2649       83.7457       83.7457        1.8000     3639.6359  6551344.5515
    3112.8336     3091.5980     2258.3484       83.5962       83.5962        1.8000     3646.1420  6563055.5935
    3112.9860     3091.7504     2258.4319       83.4469       83.4469        1.8000     3652.6644  6574796.0037
    3113.1384     3091.9027     2258.5151       83.2977       83.2977        1.8000     3659.2076  6586573.7046
    3113.2908     3092.0553     2258.5984       83.1484       83.1484        1.8000     3665.7796  6598403.2555
    3113.4432     3092.2074     2258.6814       82.9990       82.9990        1.8000     3672.3795  6610283.1797
    3113.5956     3092.3597     2258.7642       82.8496       82.8496        1.8000     3679.0014  6622202.6090
    3113.7480     3092.5121     2258.8469       82.7104       82.7104        1.8000     3685.1910  6633343.7978
    3113.9004     3092.6647     2258.9297       82.5859       82.5859        1.8000     3690.7460  6643342.7927
    3114.0528     3092.8168     2259.0120       82.4617       82.4617        1.8000     3696.3061  6653350.9622
    3114.2052     3092.9691     2259.0945       82.3374       82.3374        1.8000     3701.8872  6663396.9798
    3114.3576     3093.1215     2259.1768       82.2132       82.2132        1.8000     3707.4788  6673461.8423
    3114.5100     3093.2738     2259.2588       82.0892       82.0892        1.8000     3713.0787  6683541.5850
    3114.6624     3093.4261     2259.3408       81.9651       81.9651        1.8000     3718.7018  6693663.3117
    3114.8148     3093.5785     2259.4229       81.8408       81.8408        1.8000     3724.3478  6703826.0694
    3114.9672     3093.7308     2259.5044       81.7167       81.7167        1.8000     3730.0050  6714008.9270
