~VERSION INFORMATION
VERS.                                   2:CWLS LOG ASCII STANDARD - VERSION 2.0
WRAP.                                  NO:ONE LINE PER DEPTH STEP
~WELL INFORMATION
#MNEM.UNIT              DATA              DESCRIPTION
#--------- ------------------------------ -------------------------------
 STRT.M                           20.7900:START DEPTH
 STOP.M                         4665.7896:STOP DEPTH
 STEP.M                            0.1524:STEP
 NULL.                          -999.2500:NULL VALUE
 COMP.     WOODSIDE ENERGY LTD.          :COMPANY                                          
 WELL.     TOROSA-1                      :WELL                                             
 FLD .     TOROSA                        :FIELD                                            
 LOC .                                   :LOCATION
 PROV.     AUSTRALIA                     :PROVINCE                                         
 SRVC.     READ WELL SERVICES            :SERVICE COMPANY
 DATE.     24/08 2007                    :LOG DATE
 UWI .                                   :UNIQUE WELL ID
~CURVE INFORMATION
#MNEM.UNIT                                DESCRIPTION
#--------- ------------------------------ -------------------------------
MD        .M                             :1 MEASURED DEPTH FROM RKB                                                       
TVD       .M                             :2 TRUE VERTICAL DEPTH FROM MSL                                                  
TIME      .MS                            :3 TWO-WAY TRAVEL TIME FROM MSL, DERIVED FROM CALIBRATED SONIC LOG               
DT        .US/F                          :4 UNCALIBRATED SONIC LOG. COMPUTED FROM CHECK SHOTS ABOVE 2875.3 M MD RKB.      
DTC_CS    .US/F                          :5 CHECK SHOT CALIBRATED SONIC LOG                                               
RHO_CS    .G/CC                          :6 DENSITY LOG                                                                   
VEL_CS    .M/S                           :7 CHECK SHOT CALIBRATED VELOCITY LOG                                            
AIMP_CS   .MSKM                          :8 ACOUSTIC IMPEDANCE LOG (M/S*KG/CUBICM)                                        
# LOG CURVES
~A MD         TVD          TIME         DT           DTC_CS       RHO_CS       VEL_CS       AIMP_CS    
# ...
    4651.3116     4627.4225     2994.2581       80.9007       83.2779        2.6440     3660.0781  9677364.5718
    4651.4640     4627.5709     2994.3391       80.8277       83.2049        2.6470     3663.2919  9696859.1643
    4651.6164     4627.7189     2994.4197       80.3015       82.6787        2.6582     3686.6067  9799901.7910
    4651.7688     4627.8673     2994.5000       79.9199       82.2972        2.6720     3703.6969  9896357.2059
    4651.9212     4628.0153     2994.5803       80.4676       82.8448        2.6813     3679.2115  9865009.9982
    4652.0736     4628.1637     2994.6609       80.3489       82.7261        2.6745     3684.4909  9854226.6455
    4652.2260     4628.3121     2994.7415       80.1235       82.5007        2.6557     3694.5572  9811508.7038
    4652.3784     4628.4606     2994.8215       80.0369       82.4141        2.6562     3698.4419  9823704.9883
    4652.5308     4628.6085     2994.9016       79.9756       82.3528        2.6787     3701.1961  9914241.2221
    4652.6832     4628.7570     2994.9819       80.3911       82.7683        2.6933     3682.6138  9918496.7483
    4652.8356     4628.9049     2995.0625       80.7522       83.1294        2.6899     3666.6177  9862894.8320
    4652.9880     4629.0533     2995.1433       80.5417       82.9190        2.6720     3675.9230  9822081.7353
    4653.1404     4629.2013     2995.2236       80.1162       82.4934        2.6705     3694.8842  9867187.7217
    4653.2928     4629.3497     2995.3037       79.6985       82.0757        2.6937     3713.6904 10003508.8666
    4653.4452     4629.4982     2995.3838       79.6382       82.0154        2.7011     3716.4215 10038560.2982
    4653.5976     4629.6466     2995.4636       79.8091       82.1863        2.6772     3708.6936  9929004.1812
    4653.7500     4629.7946     2995.5432       79.5370       81.9142        2.6603     3721.0116  9899004.6529
    4653.9024     4629.9430     2995.6226       78.3625       80.7397        2.6514     3775.1412 10009461.8522
    4654.0548     4630.0909     2995.7007       77.5102       79.8874        2.6497     3815.4147 10109574.9630
    4654.2072     4630.2394     2995.7781       77.1253       79.5025        2.6505     3833.8888 10161883.3391
    4654.3596     4630.3873     2995.8552       76.9910       79.3682        2.6558     3840.3739 10199196.1358
    4654.5120     4630.5358     2995.9326       77.4686       79.8458        2.6586     3817.4024 10148933.0160
    4654.6644     4630.6837     2996.0107       78.1599       80.5371        2.6522     3784.6390 10037447.5723
    4654.8168     4630.8326     2996.0894       78.5951       80.9723        2.6437     3764.2948  9951678.2767
    4654.9692     4630.9806     2996.1682       78.8049       81.1821        2.6406     3754.5689  9914501.6089
    4655.1216     4631.1290     2996.2471       78.5593       80.9365        2.6475     3765.9615  9970398.4321
    4655.2740     4631.2770     2996.3254       78.2355       80.6127        2.6535     3781.0888 10033270.9861
    4655.4264     4631.4254     2996.4038       78.0458       80.4230        2.6483     3790.0075 10037129.2407
    4655.5788     4631.5734     2996.4822       78.1814       80.5586        2.6403     3783.6267  9990089.5939
    4655.7312     4631.7218     2996.5608       78.6160       80.9932        2.6370     3763.3241  9923958.0016
    4655.8836     4631.8698     2996.6399       79.2052       81.5824        2.6399     3736.1451  9862970.6360
    4656.0360     4632.0182     2996.7195       79.7405       82.1177        2.6483     3711.7887  9829894.3552
    4656.1884     4632.1666     2996.7996       79.9380       82.3152        2.6583     3702.8850  9843461.1591
    4656.3408     4632.3151     2996.8796       79.7110       82.0882        2.6647     3713.1238  9894293.8103
    4656.4932     4632.4630     2996.9592       79.4977       81.8749        2.6690     3722.7964  9936104.5671
    4656.6456     4632.6115     2997.0388       79.6158       81.9930        2.6686     3717.4360  9920270.6458
    4656.7980     4632.7594     2997.1187       79.6247       82.0019        2.6624     3717.0330  9896123.0100
    4656.9504     4632.9078     2997.1982       79.4561       81.8333        2.6594     3724.6905  9905592.5423
    4657.1028     4633.0558     2997.2776       78.9994       81.3766        2.6590     3745.5957  9959403.4438
    4657.2552     4633.2042     2997.3562       77.8360       80.2132        2.6603     3799.9177 10108882.2927
    4657.4076     4633.3527     2997.4333       75.4340       77.8112        2.6688     3917.2235 10454288.4659
    4657.5600     4633.5011     2997.5078       72.8574       75.2346        2.6805     4051.3766 10859550.8203
    4657.7124     4633.6490     2997.5801       70.9854       73.3626        2.7008     4154.7567 11221099.9561
    4657.8648     4633.7975     2997.6499       68.2046       70.5818        2.7184     4318.4464 11739171.4660
    4658.0172     4633.9454     2997.7168       64.7262       67.1034        2.7116     4542.2964 12316762.2071
    4658.1696     4634.0939     2997.7812       63.2065       65.5837        2.7058     4647.5548 12575373.4441
    4658.3220     4634.2418     2997.8452       63.1709       65.5481        2.7020     4650.0776 12564506.6105
    4658.4744     4634.3903     2997.9094       64.1148       66.4920        2.6955     4584.0649 12356367.2190
    4658.6268     4634.5382     2997.9751       66.1927       68.5699        2.6803     4445.1524 11914258.6126
    4658.7792     4634.6871     2998.0437       70.0031       72.3803        2.6704     4211.1406 11245233.7921
    4658.9316     4634.8351     2998.1162       74.3450       76.7222        2.6700     3972.8242 10607374.2662
    4659.0840     4634.9835     2998.1917       76.1126       78.4898        2.6709     3883.3542 10372001.2926
    4659.2364     4635.1315     2998.2683       76.9340       79.3112        2.6688     3843.1363 10256389.0804
    4659.3888     4635.2799     -999.2500     -999.2500     -999.2500        2.6726     -999.2500  -999250.0000
    4659.5412     4635.4279     -999.2500     -999.2500     -999.2500        2.6804     -999.2500  -999250.0000
    4659.6936     4635.5763     -999.2500     -999.2500     -999.2500        2.6813     -999.2500  -999250.0000
    4659.8460     4635.7242     -999.2500     -999.2500     -999.2500        2.6742     -999.2500  -999250.0000
    4659.9984     4635.8727     -999.2500     -999.2500     -999.2500        2.6661     -999.2500  -999250.0000
    4660.1508     4636.0211     -999.2500     -999.2500     -999.2500        2.6665     -999.2500  -999250.0000
    4660.3032     4636.1696     -999.2500     -999.2500     -999.2500        2.6680     -999.2500  -999250.0000
    4660.4556     4636.3175     -999.2500     -999.2500     -999.2500        2.6493     -999.2500  -999250.0000
    4660.6080     4636.4659     -999.2500     -999.2500     -999.2500        2.6419     -999.2500  -999250.0000
    4660.7604     4636.6139     -999.2500     -999.2500     -999.2500        2.6463     -999.2500  -999250.0000
    4660.9128     4636.7623     -999.2500     -999.2500     -999.2500        2.6438     -999.2500  -999250.0000
    4661.0652     4636.9103     -999.2500     -999.2500     -999.2500        2.6412     -999.2500  -999250.0000
    4661.2176     4637.0587     -999.2500     -999.2500     -999.2500        2.6373     -999.2500  -999250.0000
    4661.3700     4637.2072     -999.2500     -999.2500     -999.2500        2.6328     -999.2500  -999250.0000
    4661.5224     4637.3556     -999.2500     -999.2500     -999.2500        2.6388     -999.2500  -999250.0000
    4661.6748     4637.5035     -999.2500     -999.2500     -999.2500        2.6375     -999.2500  -999250.0000
    4661.8272     4637.6520     -999.2500     -999.2500     -999.2500        2.6399     -999.2500  -999250.0000
    4661.9796     4637.7999     -999.2500     -999.2500     -999.2500        2.6493     -999.2500  -999250.0000
    4662.1320     4637.9484     -999.2500     -999.2500     -999.2500        2.6542     -999.2500  -999250.0000
